address,city_name,cleanliness,comment_count,distance_tip,district_name,fangdong_house_count,fangdong_id,fangdong_nick_name,fangdong_tags,fangdong_tel,fangwu_src,favorite_count,house_decoration,house_id,house_in,house_jishi,house_mianji,house_out,house_ren_count,house_type,latitude,longitude,name,overall,price,services,source,traffic,unit_infor
济南恒大悦庭-北门,济南,5.0,12,近高新区/奥体中心,历城区,,6604445,济南途掌柜124130精品民宿,自营民宿,185DeqT8925,https://www.tujia.com/detail/18241399.htm,35,5.0,18241399,14:00后入住,3室3厅 2卫1厨,129㎡,12:00前退房,宜住6人,整套普通公寓,36.721278,117.148867,【班禾】济南东站/鲍山公园/悦庭三居室,5.0,375,5.0,tujia,5.0,距高新区/奥体中心直线3.6公里
启盛街/顺河高架路(路口)(启盛街26号),济南,4.9,19,近大明湖/泉城广场/趵突泉,天桥区,,5525129,林姐.,"个人房东,超赞房东,实名验证",186BdpT8586,https://www.tujia.com/detail/14785737.htm,231,4.9,14785737,14:00后入住,1室1厅 1卫1厨,40㎡,12:00前退房,宜住2人,整套普通公寓,36.68199864955673,117.0220521547409,一楼独门独户 不交叉感染/大明湖旁大一居,4.9,176,5.0,tujia,4.8,距大明湖/泉城广场/趵突泉直线1.7公里
东双龙街趵突泉小区一区,济南,4.6,59,近大明湖/泉城广场/趵突泉,市中区,,1872803,路客精品民宿BE5560,商户经营,400DxKc270,https://www.tujia.com/detail/512815.htm,578,4.6,512815,15:00后入住,1室1厅 1卫1厨,60㎡,12:00前退房,宜住4人,整套普通公寓,36.66444341940101,117.02446926673467,【路客】限时长租丨趵突泉,4.7,662,4.7,tujia,4.7,距大明湖/泉城广场/趵突泉直线496米
小清河北路,济南,5.0,4,近北园,天桥区,,3262297,家芬菲（点击头像预览更多房源）,"个人房东,超赞房东,实名验证",187DSed6768,https://www.tujia.com/detail/18230640.htm,54,5.0,18230640,14:00后入住,1室1厅 1卫1厨,70㎡,12:00前退房,宜住3人（可加1人）,整套Loft复式,36.71253683476672,117.03504204743622,💯安心住【家芬菲】趵突泉可做饭loft,5.0,186,5.0,tujia,5.0,距北园直线1.4公里
K88南益·名泉广场(大明湖附近),济南,4.7,174,近火车站,天桥区,,4649037,子曰明湖民宿（点击头像预览更多房源）,"个人房东,实名验证",132BkSl8838,https://www.tujia.com/detail/13212536.htm,1698,4.7,13212536,14:00后入住,1室0厅 1卫1厨,52㎡,12:00前退房,宜住2人,整套酒店式公寓,36.68210071313009,116.98992937716112,🏅💯【已消毒】大明湖趵突泉精品大床房,4.7,168,4.8,tujia,4.7,距火车站直线434米
章丘唐人中心-G区,济南,5.0,3,,章丘区,,5231031,花野·间,"个人房东,实名验证",186DUHR5130,https://www.tujia.com/detail/20045768.htm,118,5.0,20045768,14:00后入住,2室3厅 2卫1厨,150㎡,12:00前退房,宜住4人,整套Loft复式,36.71461088104255,117.5383414497642,市中心｜复式双层  LOFT,5.0,458,5.0,tujia,5.0,
康桥颐东,济南,4.9,145,近高新区/奥体中心,历下区,,3826887,济南途掌柜102327精品民宿,自营民宿,185DeqT8925,https://www.tujia.com/detail/9357146.htm,171,4.9,9357146,14:00后入住,1室0厅 1卫1厨,54㎡,12:00前退房,宜住2人,整套普通公寓,36.676277,117.124657,【班禾】奥体/会展/万达北欧主题标准间,5.0,225,5.0,tujia,5.0,距高新区/奥体中心直线1.9公里
领秀城贵和金街五号公寓楼,济南,5.0,5,近英雄山/千佛山/舜耕会展中心,市中区,,6720183,济南香舍,"个人房东,超赞房东,实名验证",130EsEI2872,https://www.tujia.com/detail/18939677.htm,23,5.0,18939677,12:00后入住,1室0厅 1卫0厨,60㎡,12:00前退房,宜住2人（可加1人）,整套酒店式公寓,36.599642,117.011594,【香舍4】轻奢投影大床公寓 近泉城广场,5.0,258,5.0,tujia,5.0,距英雄山/千佛山/舜耕会展中心直线5公里
泉城路世茂国际广场,济南,4.9,4004,近大明湖/泉城广场/趵突泉,历下区,,4110,济南斯维登服务公寓（大明湖世茂广场）,斯维登,0531EWGA8333,https://www.tujia.com/detail/18912.htm,3525,4.9,18912,14:00后入住,1室0厅 1卫1厨,60㎡,12:00前退房,宜住2人,整套酒店式公寓,36.670628,117.036817,【安心房】济南斯维登世茂国际广场高级大床房,4.9,334,4.9,tujia,4.9,距大明湖/泉城广场/趵突泉直线825米
振兴街街道和谐佳苑,济南,4.9,19,近大观园/和谐广场商圈,槐荫区,,5700556,路客精品民宿BJ1610,商户经营,400DxKc270,https://www.tujia.com/detail/15087983.htm,114,4.9,15087983,15:00后入住,2室1厅 1卫1厨,75㎡,12:00前退房,宜住4人,整套普通公寓,36.659244137262746,116.98562099967884,【路客】初夏特惠丨和谐广场旁丨楼兰莺歌,4.9,1282,4.9,tujia,4.8,距大观园/和谐广场商圈直线556米
恒大翡翠华庭-2期,济南,5.0,14,近西客站,槐荫区,,6379507,济南途掌柜123628精品民宿,自营民宿,155BBws1080,https://www.tujia.com/detail/17468536.htm,32,5.0,17468536,14:00后入住,4室2厅 2卫1厨,200㎡,12:00前退房,宜住7人,整套普通公寓,36.679027,116.933402,【班禾】山东会展/森林公园/翡翠豪华四居,5.0,999,5.0,tujia,5.0,距西客站直线3公里
坝王路7号天鸿万卷府,济南,5.0,18,,历城区,,5933803,路客精品民宿BJ2900,商户经营,400DxKc270,https://www.tujia.com/detail/15808276.htm,83,5.0,15808276,15:00后入住,3室1厅 1卫1厨,92㎡,12:00前退房,宜住6人,整套普通公寓,36.73796845402668,117.15799169556738,【路客】初夏特惠【设计师】新东站,5.0,1043,5.0,tujia,5.0,
恒大滨河左岸(左岸公寓),济南,5.0,62,近北园,天桥区,,3262297,家芬菲（点击头像预览更多房源）,"个人房东,超赞房东,实名验证",187DSed6768,https://www.tujia.com/detail/7753635.htm,956,5.0,7753635,14:00后入住,1室1厅 1卫1厨,66㎡,12:00前退房,宜住2人（可加1人）,整套Loft复式,36.7125149169342,117.03860499999992,💯安心住【家芬菲】大明湖可做饭loft,5.0,186,5.0,tujia,4.9,距北园直线1.1公里
康桥·颐东,济南,5.0,124,,高新区,,3849959,济南途掌柜102326精品民宿,自营民宿,185DeqT8925,https://www.tujia.com/detail/9400721.htm,137,5.0,9400721,14:00后入住,1室0厅 1卫1厨,54㎡,12:00前退房,宜住2人,整套酒店式公寓,36.675981,117.124822,【班禾】奥体/高新会展/北欧主题一居室,5.0,200,5.0,tujia,5.0,
民营经科园路(恒大滨河左岸公寓4号公寓楼),济南,4.6,146,近北园,天桥区,,3786595,海星精品loft公寓,商户经营,155BuWZ7971,https://www.tujia.com/detail/9238167.htm,7255,4.6,9238167,13:00-次日3:00,1室1厅 1卫0厨,60㎡,12:00前退房,宜住2人,整套Loft复式,36.71243979886187,117.03482674421817,大明湖/泉城广场/上下两层/欧式装修,4.6,138,4.7,tujia,4.5,距北园直线1.4公里
汇展香格里拉(会展香格里拉),济南,5.0,10,近高新区/奥体中心,历下区,,5661622,雅铂轻奢公寓,"商户经营,超赞房东",130CIbt7396,https://www.tujia.com/detail/15142926.htm,108,5.0,15142926,14:00后入住,1室0厅 1卫0厨,60㎡,12:00前退房,宜住2人,整套酒店式公寓,36.69368040763677,117.12954649247641,高新万达会展中心新中式摩卡大床房 奥体,5.0,335,5.0,tujia,4.9,距高新区/奥体中心直线164米
济南市阳光花园26号楼2单元,济南,4.9,66,近大观园/和谐广场商圈,槐荫区,,4404989,济南途掌柜110953精品民宿,自营民宿,185DeqT8925,https://www.tujia.com/detail/11052679.htm,210,5.0,11052679,14:00后入住,3室2厅 2卫1厨,158㎡,12:00前退房,宜住6人,整套普通公寓,36.65738,116.976905,【班禾】泰山大厦/儿童医院/舒适大三居,5.0,439,5.0,tujia,5.0,距大观园/和谐广场商圈直线1.3公里
绿城兰悦(文化东路与燕子山路交叉口),济南,5.0,3,近山师/山大/洪楼,历下区,,4714291,风花雪月之精品民宿,"个人房东,超赞房东,实名验证",155AkCL5952,https://www.tujia.com/detail/16887634.htm,92,5.0,16887634,14:00后入住,1室0厅 1卫1厨,55㎡,12:00前退房,宜住2人,整套酒店式公寓,36.659997,117.070951,【风花雪月】7济南简欧式单卧套大床房,5.0,249,5.0,tujia,5.0,距山师/山大/洪楼直线2.3公里
华福维嘉公寓,济南,5.0,3,近北园,历城区,,6025363,奈斯·福,"个人房东,超赞房东,实名验证",176EhtA3507,https://www.tujia.com/detail/17147054.htm,69,5.0,17147054,14:00-24:00,1室0厅 1卫0厨,50㎡,12:00前退房,宜住2人,整套普通公寓,36.704092,117.062652,邻荣盛北园大街|简约舒适大床泡泡房|华福,4.8,208,5.0,tujia,4.3,距北园直线1.8公里
龙湖·水晶郦城-东区,济南,5.0,49,近西客站,槐荫区,,2900109,德舍,"个人房东,超赞房东,实名验证",155DneB5380,https://www.tujia.com/detail/13651604.htm,220,5.0,13651604,14:00后入住,3室2厅 1卫1厨,115㎡,12:00前退房,宜住6人（可加1人）,整套普通公寓,36.68955131585792,116.92208881506966,【登高望远】近西客站/长租优惠/免费车位,5.0,296,5.0,tujia,5.0,距西客站直线2.6公里
国贸公寓(北园大街),济南,5.0,5,近泺口服装城/动物园,天桥区,,6976642,济南爱家服务公寓,商户经营,187CozT5275,https://www.tujia.com/detail/19796414.htm,42,5.0,19796414,14:00后入住,1室0厅 1卫1厨,55㎡,12:00前退房,宜住2人,整套普通公寓,36.692236,117.020857,火车站舒适观景地暖开放公寓,5.0,268,4.8,tujia,5.0,距泺口服装城/动物园直线2.8公里
花园路290号华夏福地,济南,4.6,25,近大明湖/泉城广场/趵突泉,历下区,,5444657,路客精品民宿BJ0460,商户经营,400DxKc270,https://www.tujia.com/detail/14367963.htm,296,4.7,14367963,15:00后入住,3室1厅 1卫1厨,101㎡,12:00前退房,宜住6人,整套普通公寓,36.68481882468154,117.03940472850135,【路客】初夏特惠『半岛铁盒』印象城,4.7,1344,4.6,tujia,4.7,距大明湖/泉城广场/趵突泉直线2.1公里
欧亚大观(阳光100美爵酒店南面欧亚大观商都),济南,5.0,2,近大观园/和谐广场商圈,市中区,,2850941,风花雪月的漫画师之家,"个人房东,超赞房东,实名验证",132DUHw6633,https://www.tujia.com/detail/11833354.htm,22,5.0,11833354,14:00后入住,1室1厅 1卫1厨,90㎡,12:00前退房,宜住2人（可加2人）,整套Loft复式,36.639379,116.988715,济南LOFT上下层北欧简约风大格局,5.0,368,5.0,tujia,5.0,距大观园/和谐广场商圈直线2.6公里
 梦世界LOMO公馆(经十路28988号),济南,4.9,38,近西客站,槐荫区,,1506372,0温馨之家0,"个人房东,超赞房东,实名验证",186CGPJ1803,https://www.tujia.com/detail/3047996.htm,237,4.9,3047996,15:00后入住,1室1厅 2卫1厨,82㎡,11:00前退房,宜住2人,整套Loft复式,36.65658279215682,116.915749,济南西站LOFT双层温馨公寓,4.9,298,4.9,tujia,4.9,距西客站直线2.3公里
经十路齐鲁宾馆,济南,4.8,93,近英雄山/千佛山/舜耕会展中心,历下区,,226883,路客精品民宿BE5650,商户经营,400DxKc270,https://www.tujia.com/detail/536670.htm,467,4.8,536670,15:00后入住,2室1厅 1卫1厨,87㎡,12:00前退房,宜住5人,整套普通公寓,36.65394828856751,117.04189962568971,【路客】千佛山&温馨简约风三居室,4.8,916,4.8,tujia,4.8,距英雄山/千佛山/舜耕会展中心直线1.7公里
兴港路,济南,5.0,157,近高新区/奥体中心,历下区,,2509747,赛车手刘阳的家(点击头像浏览我更多房子),"个人房东,超赞房东,实名验证",187AjRo9531,https://www.tujia.com/detail/8414547.htm,2771,5.0,8414547,15:00后入住,2室1厅 1卫1厨,120㎡,12:00前退房,宜住4人,整套普通公寓,36.6801976359232,117.17178371307938,【安心住】套房高品质两居万科会展中心奥体,5.0,408,5.0,tujia,4.9,距高新区/奥体中心直线3.9公里
聚隆广场,济南,5.0,31,近山师/山大/洪楼,历城区,,4432352,一壹短租,"个人房东,超赞房东,实名验证",150BVah2500,https://www.tujia.com/detail/12604810.htm,137,5.0,12604810,14:00后入住,1室0厅 1卫1厨,40㎡,12:00前退房,宜住2人,整套普通公寓,36.68711408667612,117.06842268516596,【已消毒】洪家楼 印象城 精致舒适一居室,5.0,158,5.0,tujia,5.0,距山师/山大/洪楼直线812米
东关街道 明湖东路10-11(明湖东路10号),济南,4.8,6,近山师/山大/洪楼,历下区,,5427353,奔驰的面包,"商户经营,超赞房东",130AAKZ9200,https://www.tujia.com/detail/17556176.htm,181,5.0,17556176,14:00后入住,1室1厅 1卫1厨,53㎡,12:00前退房,宜住2人,整套普通公寓,36.68438088313663,117.045437753014,{路朋}小清新一室 大明湖、趵突泉、宽厚,4.9,307,4.8,tujia,4.8,距山师/山大/洪楼直线1.9公里
济南左岸精品公寓,济南,5.0,1,近北园,天桥区,,4800223,左岸Loft易居,商户经营,139CzoV1835,https://www.tujia.com/detail/12347917.htm,103,5.0,12347917,14:00后入住,1室1厅 1卫1厨,55㎡,12:00前退房,宜住2人,整套Loft复式,36.712572,117.035277,【左岸】大明湖豪华Loft私居*抖音上榜,5.0,178,5.0,tujia,5.0,距北园直线1.3公里
明湖西路和信花园,济南,4.9,50,近火车站,天桥区,,184235,路客精品民宿BB7810,商户经营,400DxKc270,https://www.tujia.com/detail/470326.htm,195,4.9,470326,15:00后入住,1室0厅 1卫1厨,56㎡,12:00前退房,宜住2人,整套普通公寓,36.6772751830734,117.00869946120693,【路客】初夏夜8折丨毕加索之屋丨大明湖,4.9,583,5.0,tujia,4.9,距火车站直线1.5公里
广厦聚隆广场,济南,4.9,63,近山师/山大/洪楼,历城区,,3666720,聚隆公寓,"个人房东,超赞房东,实名验证",156Exrz3801,https://www.tujia.com/detail/8939946.htm,1367,4.9,8939946,14:00后入住,1室0厅 1卫0厨,46㎡,12:00前退房,宜住2人,整套普通公寓,36.68863891530508,117.06984999999992,洪家楼【印象城】暖气公寓直达趵突泉大明湖,4.9,157,4.9,tujia,4.9,距山师/山大/洪楼直线1公里
辛祝路保利海德公馆,济南,4.8,64,近山师/山大/洪楼,历城区,,1250739,路客精品民宿BF5490,商户经营,400DxKc270,https://www.tujia.com/detail/1955674.htm,709,4.8,1955674,15:00后入住,2室1厅 1卫1厨,85㎡,12:00前退房,宜住4人,整套普通公寓,36.70061139671598,117.08614749690103,初夏特惠丨直达趵突泉丨近洪楼教堂简约两,4.8,358,4.9,tujia,4.9,距山师/山大/洪楼直线2.9公里
阳光新路21号阳光100国际新城,济南,4.9,51,近大观园/和谐广场商圈,槐荫区,,3827076,济南途掌柜102347精品民宿,自营民宿,155BBws1080,https://www.tujia.com/detail/9357272.htm,181,5.0,9357272,14:00后入住,2室2厅 1卫1厨,135㎡,12:00前退房,宜住4人,整套普通公寓,36.64257584772629,116.98251772924677,【班禾】儿童医院和谐广场带按摩椅两居室,4.9,219,5.0,tujia,4.9,距大观园/和谐广场商圈直线2.4公里
经三纬一路口万达公寓,济南,4.5,83,近火车站,市中区,,32544,济南万达暮晓公寓,"个人房东,实名验证",180DIdv8317,https://www.tujia.com/detail/130365.htm,1381,4.5,130365,14:00后入住,1室0厅 1卫1厨,50㎡,12:00前退房,宜住2人,整套酒店式公寓,36.669963,117.005892,万达广场暮晓海风田园房,4.6,218,4.7,tujia,4.8,距火车站直线1.6公里
 舜风路(凤凰路与舜风路交汇处西行100米万科麓公馆小区),济南,5.0,2,近高新区/奥体中心,历下区,,6092164,蛋壳小寓,"商户经营,超赞房东",156EEgJ8222,https://www.tujia.com/detail/19901001.htm,26,5.0,19901001,14:00后入住,1室0厅 1卫1厨,44㎡,12:00前退房,宜住2人,整套酒店式公寓,36.68183620009578,117.15346194839974,济南东站遥墙机场汉峪金谷市政府齐鲁软件园,4.9,186,5.0,tujia,4.5,距高新区/奥体中心直线2.4公里
花园路290号华夏福地,济南,4.9,21,近大明湖/泉城广场/趵突泉,历下区,,5451167,路客精品民宿BJ0770,商户经营,400DxKc270,https://www.tujia.com/detail/14393002.htm,135,4.9,14393002,15:00后入住,2室1厅 1卫1厨,72㎡,12:00前退房,宜住4人,整套普通公寓,36.68481882468154,117.03940472850135,初夏特惠丨大明湖趵突泉咖啡时尚宽敞两,4.9,1344,4.9,tujia,4.9,距大明湖/泉城广场/趵突泉直线2.1公里
教职工宿舍-4号楼,济南,5.0,9,近长清大学城,长清区,,4470845,拾光驿栈,"个人房东,超赞房东,实名验证",186ETik3623,https://www.tujia.com/detail/15919814.htm,137,4.9,15919814,15:00后入住,2室1厅 1卫0厨,89㎡,12:00前退房,宜住4人（可加2人）,整套普通公寓,36.567321907763656,116.82884799999992,恬静时光&100寸巨幕投影&安静温馨两居,5.0,313,5.0,tujia,5.0,距长清大学城直线907米
杨胡公寓(距离ld吧。章丘火车站汽车站1.5公里 alt),济南,5.0,6,,章丘区,,4709328,天一,"个人房东,实名验证",139DJDX6961,https://www.tujia.com/detail/12058180.htm,87,4.8,12058180,15:00后入住,2室2厅 1卫1厨,92㎡,13:00前退房,宜住4人（可加2人）,整套普通公寓,36.71886269756608,117.51651316414588,章丘温馨家居风格两居公寓,5.0,188,5.0,tujia,5.0,
欧亚大观,济南,5.0,7,近大观园/和谐广场商圈,市中区,,4720801,唯爱民宿,商户经营,130DWla5310,https://www.tujia.com/detail/12077276.htm,93,5.0,12077276,14:00后入住,1室1厅 2卫1厨,50㎡,12:00前退房,宜住2人,整套Loft复式,36.639352463488024,116.9888105768846,欧式大床 两卫,4.9,268,4.9,tujia,4.9,距大观园/和谐广场商圈直线2.6公里
财富壹号,济南,5.0,8,近大观园/和谐广场商圈,槐荫区,,6284510,济南途掌柜122859精品民宿,自营民宿,133Btbb1159,https://www.tujia.com/detail/17129932.htm,12,5.0,17129932,14:00后入住,3室1厅 2卫0厨,136㎡,12:00前退房,宜住5人,整套普通公寓,36.654362,116.946197,【班禾】免费停车/投影仪/特惠三居室,5.0,429,5.0,tujia,5.0,距大观园/和谐广场商圈直线4公里
姚家东路与姚家街交叉口(万象城上),济南,5.0,2,近高新区/奥体中心,历下区,,6244659,万象城悦玺民宿,"商户经营,超赞房东,实名验证",180AuSi6227,https://www.tujia.com/detail/17100287.htm,48,5.0,17100287,14:00后入住,1室0厅 1卫0厨,46㎡,12:00前退房,宜住2人,整套普通公寓,36.666152,117.105977,【悦玺•罗曼蒂克】30奥体万象城投影一居,5.0,358,5.0,tujia,5.0,距高新区/奥体中心直线3.6公里
凯旋新城西区,济南,5.0,11,近大观园/和谐广场商圈,槐荫区,,5718938,刘晓龙,"个人房东,超赞房东,实名验证",156AMMz2007,https://www.tujia.com/detail/15135807.htm,40,5.0,15135807,14:00后入住,1室1厅 1卫1厨,77㎡,12:00前退房,宜住2人（可加1人）,整套普通公寓,36.65480577865815,116.95633828164273,儿童医院五院和谐广场西站会展温馨房带暖气,5.0,151,5.0,tujia,5.0,距大观园/和谐广场商圈直线3.1公里
舜华路街道 新泺大街(齐鲁软件园旁美莲广场对面),济南,5.0,2,近高新区/奥体中心,历下区,,5050144,泉城兰亭小筑,"个人房东,超赞房东,实名验证",131DvbU1959,https://www.tujia.com/detail/17765287.htm,27,5.0,17765287,14:00后入住,1室0厅 1卫0厨,47㎡,12:00前退房,宜住2人,整套普通公寓,36.682052,117.140801,5齐鲁软件园高新万达汉峪金谷奥体原木风,5.0,205,5.0,tujia,5.0,距高新区/奥体中心直线1.5公里
华福维嘉公寓,济南,5.0,3,近北园,历城区,,6025363,奈斯·福,"个人房东,超赞房东,实名验证",176EhtA3507,https://www.tujia.com/detail/17146977.htm,34,5.0,17146977,14:00-24:00,1室0厅 1卫0厨,50㎡,12:00前退房,宜住2人,整套普通公寓,36.704092,117.062652,华福v+公寓|简约舒适大床泡泡房|邻荣盛,5.0,208,5.0,tujia,5.0,距北园直线1.8公里
堤口路88号名泉公寓,济南,4.8,8,近火车站,天桥区,,87251,美墅公寓,"个人房东,超赞房东,实名验证",139Ayqf1258,https://www.tujia.com/detail/257276.htm,204,4.8,257276,12:00后入住,1室1厅 1卫0厨,37㎡,24:00前退房,宜住2人,整套Loft复式,36.681231666174554,116.98704518901704,阳光主题房,4.7,188,4.8,tujia,4.6,距火车站直线514米
花园路290号华夏福地,济南,4.8,20,近大明湖/泉城广场/趵突泉,历下区,,5452749,路客精品民宿BJ0790,商户经营,400DxKc270,https://www.tujia.com/detail/14398343.htm,76,4.8,14398343,15:00后入住,2室1厅 1卫1厨,71㎡,12:00前退房,宜住4人,整套普通公寓,36.68481882468154,117.03940472850135,初夏特惠丨大明湖东临趵突泉精品古典两,4.8,1350,4.8,tujia,4.8,距大明湖/泉城广场/趵突泉直线2.1公里
姚家东路与姚家街交叉口(万象城上),济南,5.0,2,近高新区/奥体中心,历下区,,6244659,万象城悦玺民宿,"商户经营,超赞房东,实名验证",180AuSi6227,https://www.tujia.com/detail/17146683.htm,49,5.0,17146683,14:00后入住,1室0厅 1卫0厨,46㎡,12:00前退房,宜住2人,整套普通公寓,36.666152,117.105977,【悦玺•日式百寸一居室】•30奥体万象城,5.0,358,5.0,tujia,5.0,距高新区/奥体中心直线3.6公里
绿城兰悦(在燕子山路和文化东路交叉口西南角蓝色玻璃高层公寓),济南,5.0,6,近山师/山大/洪楼,历下区,,5920272,禾田 hotin,"个人房东,实名验证",186DlUR9737,https://www.tujia.com/detail/16378363.htm,23,5.0,16378363,15:00后入住,1室0厅 1卫0厨,41㎡,12:00前退房,宜住2人,整套普通公寓,36.658208194265555,117.06882214630907,禾田-太舒服/投影/惊喜/干净/连住优惠,5.0,289,5.0,tujia,5.0,距山师/山大/洪楼直线2.4公里
民营经科园路(恒大滨河左岸4号公寓楼),济南,3.5,2,近北园,天桥区,,3786595,海星精品loft公寓,商户经营,155BuWZ7971,https://www.tujia.com/detail/10241393.htm,86,4.0,10241393,13:00后入住,1室1厅 1卫0厨,60㎡,12:00前退房,宜住2人,整套Loft复式,36.71243979886187,117.03482674421817,大明湖/泉城广场/温馨舒适/复式大床房,3.8,138,4.0,tujia,3.5,距北园直线1.4公里
经一路和信广场,济南,0.0,0,近火车站,天桥区,,8163009,济南拾光公寓,"商户经营,实名验证",131BnGL7867,https://www.tujia.com/detail/24713669.htm,,0.0,24713669,14:00后入住,1室0厅 1卫0厨,40㎡,12:00前退房,宜住2人,整套普通公寓,36.675546,117.006713,大明湖/泉城广场商圈巨幕影视标准间,0.0,232,0.0,tujia,0.0,距火车站直线1.4公里
大杨新区西区,济南,0.0,0,近西客站,槐荫区,,1064717,西城三舍,"个人房东,实名验证",176AhWD2022,https://www.tujia.com/detail/18723685.htm,26,0.0,18723685,14:00后入住,2室2厅 1卫1厨,102㎡,12:00前退房,宜住4人（可加1人）,整套普通公寓,36.65212491018006,116.90060304527223,短租优惠西客站肿瘤医院高层电梯精装两室,0.0,321,0.0,tujia,0.0,距西客站直线2.4公里
纬一路与馆驿街交叉口(和信广场),济南,4.5,6,近火车站,天桥区,,218128,和之信精品民宿（点击头像浏览更多房源）,"商户经营,超赞房东,实名验证",137EXdf0402,https://www.tujia.com/detail/11737139.htm,120,4.7,11737139,14:00后入住,1室0厅 1卫0厨,53㎡,12:00前退房,宜住2人,整套普通公寓,36.67510275771164,117.0062329947102,北欧简约风近万达火车站大明湖趵突泉大一居,4.8,338,5.0,tujia,4.8,距火车站直线1.4公里
经一路和信广场,济南,5.0,1,近火车站,天桥区,,8163009,济南拾光公寓,"商户经营,实名验证",131BnGL7867,https://www.tujia.com/detail/24713711.htm,,5.0,24713711,14:00后入住,1室0厅 1卫0厨,45㎡,12:00前退房,宜住2人,整套普通公寓,36.675546,117.006713,大明湖/泉城广场商圈巨幕影视大床房,5.0,222,5.0,tujia,5.0,距火车站直线1.4公里
堤口路名泉春晓A1座,济南,4.7,36,近火车站,天桥区,,34327,名泉公寓,"个人房东,超赞房东,实名验证",188DKgD1799,https://www.tujia.com/detail/113455.htm,725,4.7,113455,14:00后入住,1室1厅 1卫1厨,60㎡,12:00前退房,宜住2人,整套Loft复式,36.68121,116.986804,名泉春晓主题日租房,4.8,178,4.9,tujia,4.9,距火车站直线530米
恒大城,济南,5.0,1,近高新区/奥体中心,历城区,,6023242,百洋时尚主题公寓,商户经营,133Bemy6056,https://www.tujia.com/detail/16961498.htm,7,5.0,16961498,14:00后入住,1室0厅 1卫0厨,58㎡,12:00前退房,宜住2人,整套普通公寓,36.724720910104594,117.14720425768222,济南东站【晚安•Morandi】大床房,5.0,194,5.0,tujia,5.0,距高新区/奥体中心直线3.9公里
和信城市广场,济南,3.8,10,近火车站,天桥区,,3786595,海星精品loft公寓,商户经营,155BuWZ7971,https://www.tujia.com/detail/13575241.htm,168,4.1,13575241,14:00后入住,1室0厅 1卫0厨,47㎡,12:00前退房,宜住2人,整套普通公寓,36.67525767680574,117.00628911162248,近大明湖火车站泉城广场趵突泉万达【雨荷】,4.0,138,3.9,tujia,4.3,距火车站直线1.4公里
华福维嘉公寓,济南,5.0,4,近北园,历城区,,6025363,奈斯·福,"个人房东,超赞房东,实名验证",176EhtA3507,https://www.tujia.com/detail/16905869.htm,48,5.0,16905869,14:00-24:00,1室0厅 1卫0厨,50㎡,12:00前退房,宜住2人,整套普通公寓,36.704146,117.062638,【奈斯·福】北园大街邻荣盛|简约一居公寓,5.0,208,5.0,tujia,5.0,距北园直线1.8公里
经五路119(幼儿园对面),济南,5.0,25,近大观园/和谐广场商圈,市中区,,2583870,白羽,"个人房东,超赞房东,实名验证",155AeqQ3199,https://www.tujia.com/detail/6065061.htm,291,5.0,6065061,14:00后入住,2室1厅 1卫1厨,67㎡,12:00前退房,宜住4人（可加1人）,整套Loft复式,36.66603191380532,117.00052999999993,济南火车站大观园万达广场新东方温暖的家,5.0,280,5.0,tujia,5.0,距大观园/和谐广场商圈直线1公里
会展西路香格里拉西北塔,济南,0.0,0,近高新区/奥体中心,高新区,,97623,泉城广场芙蓉街服装设计师的家,"个人房东,实名验证",183DRqt7673,https://www.tujia.com/detail/1070939.htm,44,0.0,1070939,14:00后入住,1室0厅 1卫1厨,75㎡,12:00前退房,宜住2人,整套普通公寓,36.693487,117.128913,08济南高新万达广场 会展中心洋溢一居,0.0,196,0.0,tujia,0.0,距高新区/奥体中心直线174米
岱宗街,济南,4.8,4,近大明湖/泉城广场/趵突泉,历下区,,4080630,木屋之家民宿,"个人房东,实名验证",183Cejj7218,https://www.tujia.com/detail/17183762.htm,133,4.8,17183762,14:00后入住,1室0厅 1卫0厨,16㎡,12:00前退房,宜住2人,整套客栈,36.677077,117.032505,【已消毒】石板涯__芙蓉街大明湖百花洲,4.9,168,5.0,tujia,5.0,距大明湖/泉城广场/趵突泉直线1.1公里
明湖西路,济南,0.0,0,近火车站,天桥区,,9951159,奈斯精品酒店(济南火车站店),"商户经营,实名验证",137EXdf0402,https://www.tujia.com/detail/34389097.htm,,0.0,34389097,14:00后入住,1室0厅 1卫0厨,34㎡,12:00前退房,宜住2人,整套普通公寓,36.675569,117.006671,大明湖/泉城广场商圈精选黑色ins大床房,0.0,282,0.0,tujia,0.0,距火车站直线1.4公里
宝华街官扎营新,济南,4.7,45,近火车站,天桥区,,192195,路客精品民宿BB8950,商户经营,400DxKc270,https://www.tujia.com/detail/483291.htm,306,4.8,483291,15:00后入住,2室1厅 1卫1厨,60㎡,12:00前退房,宜住4人,整套普通公寓,36.67994498290348,116.99802985341823,【路客】初夏夜8折丨大明湖济南站趵突泉泉,4.8,1803,4.8,tujia,4.8,距火车站直线591米
万达盛景苑小区,济南,5.0,29,近大明湖/泉城广场/趵突泉,市中区,,179765,泉城热宿,"个人房东,超赞房东,实名验证",155EfZY2600,https://www.tujia.com/detail/5247566.htm,379,4.9,5247566,14:00后入住,2室1厅 1卫1厨,78㎡,12:00前退房,宜住4人,整套普通公寓,36.670909,117.012539,暖气房矿主的家里有矿|市中心万达两居,5.0,278,5.0,tujia,5.0,距大明湖/泉城广场/趵突泉直线1.5公里
绿城兰悦(文化东路与燕子山路交叉口西南角),济南,5.0,5,近山师/山大/洪楼,历下区,,4714291,风花雪月之精品民宿,"个人房东,超赞房东,实名验证",155AkCL5952,https://www.tujia.com/detail/15851431.htm,142,4.8,15851431,14:00后入住,2室1厅 1卫1厨,65㎡,12:00前退房,宜住4人,整套酒店式公寓,36.660055,117.070843,风花雪月市中美式复古家庭四人100寸投影,4.9,259,5.0,tujia,4.6,距山师/山大/洪楼直线2.2公里
北园大街,济南,0.0,0,近北园,历城区,,8163233,铂爵公馆(济南荣盛时代广场店),"商户经营,实名验证",0531Dlpd3199,https://www.tujia.com/detail/24715174.htm,,0.0,24715174,14:00后入住,1室0厅 1卫0厨,54㎡,12:00前退房,宜住4人,整套普通公寓,36.709022,117.067859,北园商圈豪华家庭套房,0.0,300,0.0,tujia,0.0,距北园直线1.9公里
47号诚基中心B8诚基中心公寓,济南,4.3,6,近山师/山大/洪楼,历下区,,97623,泉城广场芙蓉街服装设计师的家,"个人房东,实名验证",183DRqt7673,https://www.tujia.com/detail/296557.htm,256,4.3,296557,14:00后入住,1室1厅 1卫1厨,50㎡,12:00前退房,宜住2人,整套普通公寓,36.66776,117.054971,千佛山景区北欧风自由音乐人之家,4.5,198,4.8,tujia,4.3,距山师/山大/洪楼直线1.7公里
北刘新区,济南,0.0,0,近火车站,天桥区,,2148442,考拉民宿,"个人房东,超赞房东,实名验证",132AIOn4555,https://www.tujia.com/detail/18445519.htm,33,0.0,18445519,14:00后入住,2室1厅 1卫1厨,70㎡,12:00前退房,宜住4人（可加2人）,整套普通公寓,36.679782,117.012287,考拉十五近大明湖火车站INS风温馨两居室,0.0,200,0.0,tujia,0.0,距火车站直线1.8公里
绿城兰悦(文化东路与燕子山路交叉口西南角),济南,5.0,4,近山师/山大/洪楼,历下区,,4714291,风花雪月之精品民宿,"个人房东,超赞房东,实名验证",155AkCL5952,https://www.tujia.com/detail/18349535.htm,51,5.0,18349535,14:00后入住,2室1厅 1卫1厨,65㎡,12:00前退房,宜住4人（可加1人）,整套酒店式公寓,36.660055,117.070843,风花雪月极简欧式两床可住四人居家智能投影,5.0,233,5.0,tujia,5.0,距山师/山大/洪楼直线2.2公里
饮虎池(回民小区29号楼),济南,4.8,19,近大明湖/泉城广场/趵突泉,市中区,,1860105,大自然的美容师,"个人房东,超赞房东,实名验证",155CUrZ3173,https://www.tujia.com/detail/9811740.htm,182,4.7,9811740,15:00后入住,1室1厅 1卫1厨,50㎡,12:00前退房,宜住2人（可加1人）,整套普通公寓,36.665883141386,117.02004893345364,🏆【安心住】钰见趵突泉旁港风一居,4.8,228,4.9,tujia,4.7,距大明湖/泉城广场/趵突泉直线765米
魏家庄街道万达盛景苑,济南,4.9,17,近大明湖/泉城广场/趵突泉,市中区,,5451160,路客精品民宿BJ0340,商户经营,400DxKc270,https://www.tujia.com/detail/14392981.htm,156,4.8,14392981,15:00后入住,2室1厅 1卫1厨,67㎡,12:00前退房,宜住4人,整套普通公寓,36.66985706600705,117.01215347628664,【路客】初夏特惠{室内的竹}大明,4.8,1344,4.8,tujia,4.9,距大明湖/泉城广场/趵突泉直线1.5公里
无影山中路(艾特公寓),济南,4.0,5,近火车站,槐荫区,,1653486,济南蓝调国际公寓,"个人房东,实名验证",158EFuB4666,https://www.tujia.com/detail/10532110.htm,114,4.2,10532110,14:00后入住,1室0厅 1卫0厨,50㎡,12:00前退房,宜住2人,整套酒店式公寓,36.6878448353908,116.95699686970828,济南蓝调精品公寓豪华欧式主题房,4.2,115,4.2,tujia,4.2,距火车站直线3.3公里
无影山重汽翡翠郡小区南区,济南,4.6,72,近火车站,天桥区,,21330,济南我爱我家公寓,"个人房东,实名验证",186AMqV0758,https://www.tujia.com/detail/76828.htm,839,4.5,76828,14:00后入住,1室0厅 1卫1厨,57㎡,12:00前退房,宜住2人,整套普通公寓,36.690631,116.991787,🥇【已消毒】济南我爱我家公寓豪华大床房,4.6,128,4.7,tujia,4.7,距火车站直线1.4公里
明湖西路明湖广场,济南,0.0,0,近火车站,天桥区,,9687224,享爱520情侣电影酒店(济南大明湖店),"商户经营,实名验证",0531Eiyh8520,https://www.tujia.com/detail/30537368.htm,,0.0,30537368,14:00后入住,1室0厅 1卫0厨,38㎡,12:00前退房,宜住2人,整套普通公寓,36.6810746174163,117.013203599332,火车站/长途汽车站商圈特惠主题房,0.0,258,0.0,tujia,0.0,距火车站直线1.9公里
 经一路30号(明湖西路，经一路与纬一路交汇处，馆驿街西头),济南,5.0,1,近火车站,天桥区,,4725057,City漫游／爱住,"商户经营,超赞房东",155EsuO8000,https://www.tujia.com/detail/14107885.htm,38,5.0,14107885,14:00后入住,1室0厅 1卫1厨,50㎡,12:00前退房,宜住2人,整套酒店式公寓,36.67507283897678,117.00618857471486,【爱住】《I love you》大明湖,5.0,250,5.0,tujia,5.0,距火车站直线1.3公里
 未来城-南门(未来城2号公寓),济南,5.0,4,近高新区/奥体中心,历下区,,1850879,【小贝喔】美宿,"个人房东,超赞房东,实名验证",185Alev7826,https://www.tujia.com/detail/6613637.htm,57,5.0,6613637,14:00后入住,1室0厅 1卫0厨,65㎡,12:00前退房,宜住2人（可加2人）,整套酒店式公寓,36.69220430843144,117.14033348357864,【小贝喔】7 高新万达会展奥体中心双床房,5.0,175,5.0,tujia,5.0,距高新区/奥体中心直线903米
无影山重汽翡翠郡小区南区,济南,4.5,11,近火车站,天桥区,,21330,济南我爱我家公寓,"个人房东,实名验证",186AMqV0758,https://www.tujia.com/detail/4802541.htm,274,4.8,4802541,14:00后入住,1室0厅 1卫1厨,42㎡,12:00前退房,宜住2人,整套酒店式公寓,36.690631,116.991787,🥇【已消毒】翡翠郡北欧风文艺主题一居,4.7,196,4.9,tujia,4.6,距火车站直线1.4公里
北坦小区(织坊街5号楼),济南,4.8,30,近大明湖/泉城广场/趵突泉,天桥区,,5393494,肥猫家润,"个人房东,超赞房东,实名验证",186DKkX5984,https://www.tujia.com/detail/14509125.htm,143,4.8,14509125,14:00后入住,2室1厅 1卫1厨,70㎡,12:00前退房,宜住3人,整套普通公寓,36.679525914695475,117.01396399999993,『肥猫家润』日式•大明湖/芙蓉街/泉城路,4.8,280,4.9,tujia,4.8,距大明湖/泉城广场/趵突泉直线1.8公里
天桥堤口路大润发西邻（十一中对面）南益名泉春晓A1,济南,5.0,4,近火车站,天桥区,,87421,火车站爱巢主题公寓,"商户经营,超赞房东",187BCEb9582,https://www.tujia.com/detail/266891.htm,205,5.0,266891,14:00后入住,1室1厅 1卫0厨,70㎡,12:00前退房,宜住2人,整套Loft复式,36.681168,116.986777,【已消毒】大润发西名泉春晓爱巢主题公寓,5.0,146,5.0,tujia,5.0,距火车站直线530米
明湖西路,济南,0.0,0,近火车站,天桥区,,9951159,奈斯精品酒店(济南火车站店),"商户经营,实名验证",137EXdf0402,https://www.tujia.com/detail/34389195.htm,,0.0,34389195,14:00后入住,1室0厅 1卫0厨,34㎡,12:00前退房,宜住2人,整套普通公寓,36.675569,117.006671,大明湖/泉城广场商圈精选钢琴音乐大床房,0.0,282,0.0,tujia,0.0,距火车站直线1.4公里
聚隆广场,济南,5.0,1,近山师/山大/洪楼,历城区,,5880785,云☁️小树🍀,"个人房东,超赞房东,实名验证",183AWmi0808,https://www.tujia.com/detail/19474323.htm,7,5.0,19474323,14:00后入住,1室0厅 1卫0厨,30㎡,12:00前退房,宜住2人,整套普通公寓,36.6884429152919,117.07267999999993,【印象城洪楼不夜城-旅行必打卡】精装一居,5.0,199,5.0,tujia,5.0,距山师/山大/洪楼直线1.1公里
巴黎花园(明湖西路)(大明湖西北角),济南,5.0,16,近大明湖/泉城广场/趵突泉,天桥区,,97623,泉城广场芙蓉街服装设计师的家,"个人房东,实名验证",183DRqt7673,https://www.tujia.com/detail/14049925.htm,65,5.0,14049925,14:00后入住,3室1厅 2卫1厨,130㎡,12:00前退房,宜住6人,整套普通公寓,36.68302748059301,117.01762378236562,济南站 大明湖 趵突泉 简约温馨三居室,5.0,726,5.0,tujia,4.8,距大明湖/泉城广场/趵突泉直线2公里
北园大街全福街道华福维嘉公寓(荣盛时代广场西),济南,0.0,0,近北园,历城区,,6331396,轻程点击头像更多房源,商户经营,150BmBE8155,https://www.tujia.com/detail/17385901.htm,20,0.0,17385901,14:00后入住,2室1厅 1卫1厨,72㎡,12:00前退房,宜住4人,整套酒店式公寓,36.703658,117.062472,🥇【已消毒】邻荣盛洪家楼|总统套房,0.0,261,0.0,tujia,0.0,距北园直线1.9公里
运署街单位宿舍,济南,4.7,9,近大明湖/泉城广场/趵突泉,历下区,,4975209,爱上垚家,"个人房东,超赞房东,实名验证",131BUNN8191,https://www.tujia.com/detail/14326628.htm,336,4.7,14326628,14:00后入住,2室0厅 1卫1厨,58㎡,12:00前退房,宜住4人,整套普通公寓,36.67408243114977,117.04012606160165,【燕子居】—1泉城路&宽厚里&大明湖两居,4.8,338,4.9,tujia,4.9,距大明湖/泉城广场/趵突泉直线1.3公里
凤天路,济南,5.0,11,近高新区/奥体中心,历城区,,1870983,汉峪金谷精品公寓,"个人房东,实名验证",186ErWp6791,https://www.tujia.com/detail/6511080.htm,100,5.0,6511080,14:00后入住,1室0厅 1卫0厨,60㎡,12:00前退房,宜住2人,整套酒店式公寓,36.666534,117.155936,软件园/奥体中心/汉峪金谷_公寓大床房,5.0,238,5.0,tujia,4.8,距高新区/奥体中心直线3.7公里
绿城兰悦,济南,0.0,0,近山师/山大/洪楼,历下区,,6329723,时艺雅居,"个人房东,实名验证",186Doyh8110,https://www.tujia.com/detail/18225523.htm,22,0.0,18225523,14:00后入住,1室0厅 1卫0厨,42㎡,12:00前退房,宜住2人（可加1人）,整套普通公寓,36.66005491341585,117.07084299999993,【少年印象】简约舒适大床房｜文化东路｜山,0.0,258,0.0,tujia,0.0,距山师/山大/洪楼直线2.2公里
山东省济南市和谐佳苑一区(建设中),济南,0.0,0,近大观园/和谐广场商圈,槐荫区,,4120299,逍遥自在小魔女,"个人房东,实名验证",155CHgt2203,https://www.tujia.com/detail/39546018.htm,4,0.0,39546018,15:00-24:00,3室2厅 2卫1厨,135㎡,12:00前退房,宜住6人,整套普通公寓,36.65307346615097,116.9860352441838,近和谐连城商圈大三室两厅两卫轻奢风精装修,0.0,319,0.0,tujia,0.0,距大观园/和谐广场商圈直线1.2公里
万象城(万象城上),济南,5.0,1,近高新区/奥体中心,历下区,,6244659,万象城悦玺民宿,"商户经营,超赞房东,实名验证",180AuSi6227,https://www.tujia.com/detail/17065784.htm,54,5.0,17065784,14:00后入住,1室0厅 1卫0厨,48㎡,12:00前退房,宜住2人,整套酒店式公寓,36.666065,117.106066,【悦玺•罗曼蒂克】23奥体万象城省博,5.0,358,5.0,tujia,5.0,距高新区/奥体中心直线3.6公里
阳光新路欧亚大观B,济南,4.5,2,近大观园/和谐广场商圈,市中区,,8649040,济南唯爱酒店,"商户经营,实名验证",0531BFfZ3016,https://www.tujia.com/detail/26665703.htm,,4.5,26665703,14:00后入住,1室0厅 1卫0厨,70㎡,12:00前退房,宜住2人,整套普通公寓,36.639379,116.988715,大观园/和谐广场商圈豪华欧式大床房,4.5,292,4.5,tujia,4.5,距大观园/和谐广场商圈直线2.6公里
山东体育学院宿舍-北门(山东体育学院宿舍 院内最里侧 培训中心三楼(7号楼南侧)),济南,4.9,66,近大明湖/泉城广场/趵突泉,历下区,,4038497,泉城广场山师附近的温馨小窝,"个人房东,超赞房东,实名验证",133Buff7932,https://www.tujia.com/detail/9943417.htm,130,4.9,9943417,13:00后入住,1室0厅 1卫0厨,15㎡,12:00前退房,宜住2人,整套酒店式公寓,36.659601,117.043274,山师泉城广场简约风格温馨大床A,4.9,138,4.9,tujia,4.9,距大明湖/泉城广场/趵突泉直线1.6公里
润华经十路路南广场LOMO公馆,济南,4.0,1,近西客站,槐荫区,,6042933,乐梦精品公寓,"个人房东,实名验证",156CJfg1900,https://www.tujia.com/detail/16173690.htm,7,5.0,16173690,13:00后入住,1室0厅 1卫1厨,57㎡,12:00前退房,宜住2人,整套酒店式公寓,36.65658257925122,116.91574668546637,西站，三馆，会展中心，大床房，可做饭05,4.8,168,5.0,tujia,5.0,距西客站直线2.3公里
纬一路与经一路交叉口,济南,4.7,11,近火车站,天桥区,,4494813,田田的房,"个人房东,超赞房东,实名验证",166DgDz2520,https://www.tujia.com/detail/12968908.htm,131,4.8,12968908,14:00后入住,1室0厅 1卫0厨,50㎡,12:00前退房,宜住2人,整套普通公寓,36.67515131342093,117.00611372583607,【田田的房】《一生品爱》百寸投影摇椅大床,4.8,169,4.9,tujia,4.9,距火车站直线1.3公里
顺河西街济安新 ,济南,4.9,43,近大明湖/泉城广场/趵突泉,天桥区,,1369102,路客精品民宿BD5850,商户经营,400DxKc270,https://www.tujia.com/detail/2702021.htm,242,4.9,2702021,15:00后入住,2室1厅 1卫1厨,55㎡,12:00前退房,宜住4人,整套普通公寓,36.67989723465859,117.01472082871966,初夏特惠丨大明湖趵突泉欧式风情舒适两居,4.9,1071,5.0,tujia,4.9,距大明湖/泉城广场/趵突泉直线1.8公里
泺源大街-道路回民小区59号楼,济南,0.0,0,近大明湖/泉城广场/趵突泉,市中区,,6224772,城宿济南一店,商户经营,155AABB4195,https://www.tujia.com/detail/17029902.htm,14,0.0,17029902,15:00后入住,1室1厅 1卫1厨,40㎡,12:00前退房,宜住2人,整套石屋,36.664929,117.017835,【半熟芝士】步行趵突泉芙蓉街大明湖,0.0,319,0.0,tujia,0.0,距大明湖/泉城广场/趵突泉直线984米
济南木易雅居普通公寓恒大金碧新城店(济南市槐荫区东营路恒大金碧新城),济南,5.0,34,近西客站,槐荫区,,133738,木易雅居,"个人房东,超赞房东,实名验证",133BQpT9883,https://www.tujia.com/detail/373479.htm,229,5.0,373479,14:00后入住,3室2厅 1卫1厨,121㎡,12:00前退房,宜住7人,整套普通公寓,36.67981345016663,116.92936499222137,山东国际会展中心旁近济南西站方特温馨三居,5.0,458,5.0,tujia,4.9,距西客站直线2.7公里
七贤街道 九曲庄路(中海C3国际公馆),济南,5.0,3,,市中区,,6409243,薯愿,"个人房东,实名验证",130CSpf5338,https://www.tujia.com/detail/17551584.htm,61,5.0,17551584,14:00后入住,1室0厅 1卫0厨,40㎡,12:00前退房,宜住2人,整套普通公寓,36.595552936215825,116.97973861586541,轻奢公寓 影音大床房/环宇城/贵和/宜家,5.0,189,5.0,tujia,5.0,
花园路101号海蔚广场小区,济南,4.4,47,近山师/山大/洪楼,历城区,,17313,如家九号公寓,"个人房东,实名验证",180BTLJ8658,https://www.tujia.com/detail/78762.htm,1350,4.3,78762,14:00后入住,1室0厅 1卫1厨,47㎡,12:00前退房,宜住2人,整套普通公寓,36.690997,117.06912,济南如家公寓一室房艺考生的摇篮,4.4,108,4.4,tujia,4.5,距山师/山大/洪楼直线1.2公里
中国银行ATM(工业南路支行)(未来城),济南,4.4,7,近高新区/奥体中心,历下区,,1850879,【小贝喔】美宿,"个人房东,超赞房东,实名验证",185Alev7826,https://www.tujia.com/detail/7832973.htm,78,4.7,7832973,14:00后入住,1室0厅 1卫0厨,65㎡,12:00前退房,宜住2人,整套酒店式公寓,36.69421991568177,117.14062999999992,【小贝喔】9 高新万达会展奥体复古大床房,4.7,175,4.9,tujia,4.7,距高新区/奥体中心直线953米
恒生艾特公寓(艾特公寓4号楼12楼),济南,5.0,4,近火车站,槐荫区,,1214479,济南高铁西客站、宜家华庭国际公寓,"个人房东,超赞房东,实名验证",135DoEr8865,https://www.tujia.com/detail/9756916.htm,173,5.0,9756916,14:00后入住,1室0厅 1卫0厨,40㎡,12:00前退房,宜住2人,整套普通公寓,36.687913,116.957357,山东国际会展中心附近精品商务大床房,5.0,158,5.0,tujia,5.0,距火车站直线3.2公里
润华经十路路南广场LOMO公馆,济南,0.0,0,近西客站,槐荫区,,6042933,乐梦精品公寓,"个人房东,实名验证",156CJfg1900,https://www.tujia.com/detail/16174509.htm,23,0.0,16174509,13:00后入住,1室0厅 1卫1厨,45㎡,12:00前退房,宜住2人,整套酒店式公寓,36.65657433347732,116.91607911691024,西站，三馆，会展中心，大床房，可做饭03,0.0,168,0.0,tujia,0.0,距西客站直线2.4公里
南益·名泉广场E1座,济南,5.0,8,近火车站,天桥区,,1006002,米莱精品小屋,"个人房东,实名验证",186BImf6795,https://www.tujia.com/detail/1171557.htm,148,5.0,1171557,14:00后入住,1室0厅 1卫0厨,55㎡,12:00前退房,宜住2人（可加1人）,整套普通公寓,36.682606442229655,116.99179722516485,宜家家居撞色格调文艺范吉他房,5.0,178,5.0,tujia,5.0,距火车站直线462米
 未来城-南门(未来城1号公寓),济南,5.0,18,近高新区/奥体中心,历下区,,1850879,【小贝喔】美宿,"个人房东,超赞房东,实名验证",185Alev7826,https://www.tujia.com/detail/4056446.htm,268,5.0,4056446,14:00后入住,1室0厅 1卫0厨,65㎡,12:00前退房,宜住2人（可加1人）,整套酒店式公寓,36.693463,117.139646,【小贝喔】1 高新万达广场会展奥体大床房,5.0,175,5.0,tujia,5.0,距高新区/奥体中心直线851米
 全福立交桥,济南,4.2,9,近北园,历城区,,4983147,启缘驿站,商户经营,132CQHL5897,https://www.tujia.com/detail/16749881.htm,178,4.3,16749881,14:00后入住,1室0厅 1卫1厨,45㎡,12:00前退房,宜住2人,整套普通公寓,36.709508914737626,117.06777264638751,荣盛时代国际大床房可做饭全福立交桥二环东,4.4,138,4.7,tujia,4.4,距北园直线1.8公里
聚贤新区北区3号楼(聚贤北区三号楼),济南,0.0,0,近大明湖/泉城广场/趵突泉,天桥区,,2148442,考拉民宿,"个人房东,超赞房东,实名验证",132AIOn4555,https://www.tujia.com/detail/19790254.htm,2,0.0,19790254,14:00后入住,2室1厅 1卫1厨,65㎡,12:00前退房,宜住1人,整套普通公寓,36.67841149212294,117.01535859083076,考拉十七简约温馨两居室近大明湖,0.0,318,0.0,tujia,0.0,距大明湖/泉城广场/趵突泉直线1.7公里
管扎营新区党群服务中心,济南,4.8,31,近火车站,天桥区,,2051177,遇见之家,"个人房东,超赞房东,实名验证",181APCH6083,https://www.tujia.com/detail/4702707.htm,322,4.6,4702707,12:00后入住,2室1厅 1卫0厨,70㎡,12:00前退房,宜住4人,整套酒店式公寓,36.6794950715193,117.00029519528924,遇见之家民宿公寓，暖气房,4.8,208,4.9,tujia,4.7,距火车站直线778米
纬一路与馆驿街交叉口(和信广场),济南,5.0,7,近火车站,天桥区,,218128,和之信精品民宿（点击头像浏览更多房源）,"商户经营,超赞房东,实名验证",137EXdf0402,https://www.tujia.com/detail/11781883.htm,77,5.0,11781883,14:00后入住,1室0厅 1卫0厨,35㎡,12:00前退房,宜住2人,整套普通公寓,36.67526919266451,117.006125198049,镂空简约投影一居公寓近大明湖趵突泉火车站,5.0,278,5.0,tujia,5.0,距火车站直线1.3公里
小清河北路与水屯路交叉口东北侧恒大滨河左岸公寓,济南,0.0,0,近北园,天桥区,,13281304,济南西诚loft公寓,"商户经营,实名验证",531DrOf9935,https://www.tujia.com/detail/39714417.htm,,0.0,39714417,14:00后入住,1室0厅 1卫0厨,35㎡,12:00前退房,宜住2人,整套普通公寓,36.712515,117.038605,北园商圈北欧简约主题房,0.0,160,0.0,tujia,0.0,距北园直线1.1公里
address,city_name,cleanliness,comment_count,distance_tip,district_name,fangdong_house_count,fangdong_id,fangdong_nick_name,fangdong_tags,fangdong_tel,fangwu_src,favorite_count,house_decoration,house_id,house_in,house_jishi,house_mianji,house_out,house_ren_count,house_type,latitude,longitude,name,overall,price,services,source,traffic,unit_infor
泉城路,济南,4.7,315,近大明湖/泉城广场/趵突泉,历下区,,10577253,斯维登服务公寓(济南大明湖世茂广场店),"商户经营,实名验证",0531EWGA8333,https://www.tujia.com/detail/34026665.htm,,4.7,34026665,14:00后入住,1室0厅 1卫0厨,50㎡,12:00前退房,宜住2人,整套酒店式公寓,36.670555343565,117.03661818992,大明湖/泉城广场商圈标准大床房,4.8,306,4.8,tujia,4.8,距大明湖/泉城广场/趵突泉直线805米
明水街道,济南,4.8,12,,章丘区,,6233809,济南途掌柜122517精品民宿,自营民宿,185DeqT8925,https://www.tujia.com/detail/16903832.htm,17,4.8,16903832,14:00后入住,3室1厅 1卫1厨,120㎡,12:00前退房,宜住6人,整套其他,36.715284,117.542945,【班禾】百脉泉/桃花山/唐人/大三居,4.8,400,4.9,tujia,4.8,
恒大翡翠华庭四期,济南,5.0,98,近西客站,槐荫区,,6074489,济南途掌柜121689精品民宿,自营民宿,155BBws1080,https://www.tujia.com/detail/16291094.htm,65,5.0,16291094,14:00后入住,2室2厅 2卫1厨,82㎡,12:00前退房,宜住4人,整套普通公寓,36.675865,116.93433,【班禾】山东会展/印象济南/翡翠两居,5.0,279,5.0,tujia,5.0,距西客站直线3.4公里
明湖天地E座(明湖东路6号),济南,5.0,3,近山师/山大/洪楼,历下区,,5427353,奔驰的面包,"商户经营,超赞房东",130AAKZ9200,https://www.tujia.com/detail/19836832.htm,276,5.0,19836832,14:00后入住,1室1厅 1卫1厨,53㎡,12:00前退房,宜住2人,整套普通公寓,36.68420549266956,117.04866894700154,｛路朋｝13一室趵突泉大明湖宽厚里芙蓉街,4.9,277,5.0,tujia,4.7,距山师/山大/洪楼直线1.7公里
绿城兰悦(文化东路22号),济南,4.8,5,近山师/山大/洪楼,历下区,,4714291,风花雪月之精品民宿,"个人房东,超赞房东,实名验证",155AkCL5952,https://www.tujia.com/detail/17124381.htm,88,5.0,17124381,14:00后入住,2室1厅 1卫1厨,70㎡,12:00前退房,宜住4人,整套酒店式公寓,36.660055,117.070843,【风花雪月】14大明湖宽厚里橙色投影居家,5.0,289,5.0,tujia,5.0,距山师/山大/洪楼直线2.2公里
龙奥北路8号喜来登酒店西临50米（玉兰公寓13楼）,济南,4.9,16,近高新区/奥体中心,高新区,,102406,济南云天玉兰民宿公寓 奥体中心店,商户经营,0531-87BGDu00,https://www.tujia.com/detail/334296.htm,133,4.9,334296,12:00后入住,1室1厅 1卫1厨,74㎡,12:00前退房,宜住2人,整套酒店式公寓,36.659302,117.130843,豪华大床房,4.9,304,4.8,tujia,4.9,距高新区/奥体中心直线3.7公里
奥体中路和工业南路交汇处贤文世家花园,济南,4.8,15,近高新区/奥体中心,历下区,,5541201,路客精品民宿BJ0160,商户经营,400DxKc270,https://www.tujia.com/detail/14641817.htm,804,5.0,14641817,15:00后入住,3室2厅 1卫1厨,109㎡,12:00前退房,宜住6人,整套普通公寓,36.686457317938796,117.12184744978717,【路客】初夏特惠【温馨三卧】近万达广场,5.0,918,5.0,tujia,5.0,距高新区/奥体中心直线988米
 东营路,济南,5.0,21,近西客站,槐荫区,,2900109,德舍,"个人房东,超赞房东,实名验证",155DneB5380,https://www.tujia.com/detail/14532113.htm,118,5.0,14532113,14:00后入住,3室1厅 2卫1厨,138㎡,12:00前退房,宜住7人,整套普通公寓,36.6795686704703,116.9309909832265,【星光灿烂】长租优惠/可多人同住停车方便,5.0,346,5.0,tujia,5.0,距西客站直线2.8公里
三庆齐盛广场6号楼,济南,5.0,5,近高新区/奥体中心,高新区,,5050144,泉城兰亭小筑,"个人房东,超赞房东,实名验证",131DvbU1959,https://www.tujia.com/detail/19766342.htm,24,5.0,19766342,14:00后入住,1室0厅 1卫0厨,53㎡,12:00前退房,宜住2人,整套普通公寓,36.6820019269443,117.14095235458016,7齐鲁软件园美莲高新万达奥体高清大投影房,5.0,214,5.0,tujia,5.0,距高新区/奥体中心直线1.5公里
湖畔苑小区4号楼(湖畔苑4号楼),济南,5.0,18,近大明湖/泉城广场/趵突泉,天桥区,,1860105,大自然的美容师,"个人房东,超赞房东,实名验证",155CUrZ3173,https://www.tujia.com/detail/16015623.htm,286,5.0,16015623,14:00后入住,2室1厅 1卫1厨,92㎡,12:00前退房,宜住4人（可加1人）,整套普通公寓,36.685298037260836,117.03087351484888,🏆【安心住】钰见大明湖复古墨绿色两大居,5.0,388,4.9,tujia,5.0,距大明湖/泉城广场/趵突泉直线2公里
大明翠庭湖畔苑,济南,5.0,27,近大明湖/泉城广场/趵突泉,天桥区,,122080,团团圆圆,"个人房东,超赞房东,实名验证",139DqJS8699,https://www.tujia.com/detail/15714189.htm,1759,5.0,15714189,14:00后入住,2室1厅 1卫1厨,80㎡,12:00前退房,宜住5人（可加2人）,整套普通公寓,36.68574710108744,117.03125003192979,15济南大明湖➕ins湖景配儿童床两居室,5.0,428,5.0,tujia,5.0,距大明湖/泉城广场/趵突泉直线2公里
大明湖路2-8号东湖大厦,济南,4.7,152,近大明湖/泉城广场/趵突泉,历下区,,184038,路客精品民宿AA1780,商户经营,400DxKc270,https://www.tujia.com/detail/470113.htm,403,4.8,470113,15:00后入住,3室1厅 2卫1厨,180㎡,12:00前退房,宜住6人,整套普通公寓,36.679256030744504,117.0422703344236,【路客】初夏夜8折丨【新中式风】大明湖,4.8,1030,4.9,tujia,4.9,距大明湖/泉城广场/趵突泉直线1.8公里
欧亚大观(阳光100美爵酒店南面欧亚大观商都),济南,4.6,10,近大观园/和谐广场商圈,市中区,,2850941,风花雪月的漫画师之家,"个人房东,超赞房东,实名验证",132DUHw6633,https://www.tujia.com/detail/11833298.htm,95,4.8,11833298,14:00后入住,1室1厅 1卫1厨,90㎡,12:00前退房,宜住2人（可加2人）,整套Loft复式,36.639379,116.988715,济南市中LOFT两层可做饭舒适复古简约,4.8,368,4.9,tujia,4.9,距大观园/和谐广场商圈直线2.6公里
龙腾国际花园,济南,4.9,115,近西客站,槐荫区,,3827069,济南途掌柜102345精品民宿,自营民宿,155BBws1080,https://www.tujia.com/detail/9357293.htm,675,4.9,9357293,14:00后入住,2室2厅 1卫1厨,113㎡,12:00前退房,宜住4人,整套普通公寓,36.670225328703545,116.9444924570094,【班禾】山东会展森林地中海风情两居大床房,4.9,316,5.0,tujia,5.0,距西客站直线4公里
爱住Home民宿酒店,济南,0.0,0,近火车站,天桥区,,4725057,City漫游／爱住,"商户经营,超赞房东",155EsuO8000,https://www.tujia.com/detail/33769667.htm,8,0.0,33769667,14:00后入住,1室0厅 1卫1厨,50㎡,12:00前退房,宜住2人（可加1人）,整套普通公寓,36.674923314116185,117.0062947111562,【漫游】《刚好遇见你》大明湖火车趵突泉,0.0,222,0.0,tujia,0.0,距火车站直线1.4公里
梦世界LOMO公馆(经十西路28988号),济南,4.9,12,近西客站,槐荫区,,2345828,初心丫,"个人房东,超赞房东,实名验证",186ExXh8185,https://www.tujia.com/detail/16704367.htm,41,4.9,16704367,13:00后入住,1室0厅 1卫1厨,57㎡,12:00前退房,宜住2人,整套普通公寓,36.65725698919873,116.91580810153364,高铁西站会展中心一室整租，可做饭,4.9,178,4.9,tujia,4.8,距西客站直线2.3公里
南益·名泉广场-E1座(泉盈酒店名泉店楼上16楼),济南,4.8,233,近火车站,天桥区,,2775320,名泉广场一品澜庭精品公寓,"个人房东,超赞房东,实名验证",156DjSu4994,https://www.tujia.com/detail/11104479.htm,2801,4.7,11104479,14:00后入住,1室0厅 1卫1厨,55㎡,12:00前退房,宜住2人（可加1人）,整套酒店式公寓,36.682604914900665,116.991803,火车站大明湖趵突泉芙蓉街附近精选民宿,4.8,168,4.9,tujia,4.8,距火车站直线462米
济南恒大悦庭,济南,5.0,10,近高新区/奥体中心,历城区,,6606069,济南途掌柜124129精品民宿,自营民宿,185DeqT8925,https://www.tujia.com/detail/18252858.htm,40,5.0,18252858,14:00后入住,3室1厅 2卫1厨,129㎡,12:00前退房,宜住6人,整套普通公寓,36.721255,117.148977,【班禾】济南东站/万虹广场/恒大三居室,5.0,375,5.0,tujia,5.0,距高新区/奥体中心直线3.6公里
绿城兰悦(文化东路22号),济南,4.9,7,近山师/山大/洪楼,历下区,,4714291,风花雪月之精品民宿,"个人房东,超赞房东,实名验证",155AkCL5952,https://www.tujia.com/detail/17063446.htm,193,4.9,17063446,14:00后入住,2室1厅 1卫1厨,70㎡,12:00前退房,宜住4人,整套酒店式公寓,36.660055,117.070843,【风花雪月】80极简墨绿轻奢理念投影居家,4.9,259,4.7,tujia,5.0,距山师/山大/洪楼直线2.2公里
汇展香格里拉(会展香格里拉),济南,5.0,9,近高新区/奥体中心,历下区,,5661622,雅铂轻奢公寓,"商户经营,超赞房东",130CIbt7396,https://www.tujia.com/detail/15143423.htm,139,4.9,15143423,14:00后入住,1室0厅 1卫0厨,60㎡,12:00前退房,宜住2人,整套酒店式公寓,36.69368040763677,117.12954649247641,香格里拉北欧甄享大床房高新万达会展中心,4.9,346,5.0,tujia,4.8,距高新区/奥体中心直线164米
汇展香格里拉(会展香格里拉),济南,5.0,7,近高新区/奥体中心,历下区,,5661622,雅铂轻奢公寓,"商户经营,超赞房东",130CIbt7396,https://www.tujia.com/detail/15655823.htm,53,5.0,15655823,14:00后入住,1室0厅 1卫0厨,60㎡,12:00前退房,宜住2人,整套酒店式公寓,36.69368040763677,117.12954649247641,Arbor静韵一居室/会展中心/高新万达,5.0,335,5.0,tujia,5.0,距高新区/奥体中心直线164米
华福维嘉公寓,济南,5.0,6,近北园,历城区,,6186503,兰舍公寓,"个人房东,实名验证",134DOSx5321,https://www.tujia.com/detail/16716722.htm,103,5.0,16716722,12:00后入住,1室0厅 1卫0厨,50㎡,12:00前退房,宜住2人（可加1人）,整套酒店式公寓,36.70365791632449,117.06247199999993,北园大街商圈！洪楼商圈：奢华商务大床房！,5.0,98,5.0,tujia,5.0,距北园直线1.9公里
魏家庄街道鸿景苑,济南,4.8,22,近火车站,市中区,,5610270,路客精品民宿BJ1370,商户经营,400DxKc270,https://www.tujia.com/detail/14816712.htm,107,4.8,14816712,15:00后入住,3室1厅 1卫1厨,90㎡,12:00前退房,宜住6人,整套普通公寓,36.67110002223312,117.00867209150731,【路客】初夏夜8折丨趵突泉丨大明湖,4.9,884,4.8,tujia,5.0,距火车站直线1.7公里
聚隆广场,济南,5.0,51,近山师/山大/洪楼,历城区,,4432352,一壹短租,"个人房东,超赞房东,实名验证",150BVah2500,https://www.tujia.com/detail/11140249.htm,464,5.0,11140249,14:00后入住,1室0厅 1卫0厨,40㎡,12:00前退房,宜住2人,整套普通公寓,36.68711408667612,117.06842268516596,【已消毒】洪家楼山大 印象城 温馨一居室,5.0,158,5.0,tujia,4.9,距山师/山大/洪楼直线812米
华福维嘉公寓,济南,5.0,12,近北园,历城区,,6150012,山东未来公寓,商户经营,133DRHb7899,https://www.tujia.com/detail/16707244.htm,337,5.0,16707244,14:00后入住,1室0厅 1卫1厨,55㎡,12:00前退房,宜住2人,整套酒店式公寓,36.703658,117.062472,豪华商务大床房,5.0,148,5.0,tujia,5.0,距北园直线1.9公里
长途汽车站附近南益名泉春晓A1,济南,4.5,11,近火车站,天桥区,,87421,火车站爱巢主题公寓,"商户经营,超赞房东",187BCEb9582,https://www.tujia.com/detail/300098.htm,351,4.7,300098,14:00后入住,1室1厅 1卫1厨,70㎡,12:00前退房,宜住2人,整套Loft复式,36.681168,116.986777,【已消毒】近汽车站名泉春晓爱巢主题公寓,4.8,168,5.0,tujia,4.8,距火车站直线530米
绿城兰悦(临近山师山艺，大明湖趵突泉附近),济南,5.0,5,近山师/山大/洪楼,历下区,,6329723,时艺雅居,"个人房东,实名验证",186Doyh8110,https://www.tujia.com/detail/17347632.htm,68,5.0,17347632,14:00后入住,1室0厅 1卫0厨,40㎡,12:00前退房,宜住2人（可加1人）,整套普通公寓,36.66005491341585,117.07084299999993,文化东路/北欧ins风大床房温馨典雅,5.0,185,5.0,tujia,5.0,距山师/山大/洪楼直线2.2公里
经四路万达鸿景苑,济南,4.8,26,近火车站,市中区,,184293,路客精品民宿BC0380,商户经营,400DxKc270,https://www.tujia.com/detail/470347.htm,238,4.9,470347,15:00后入住,2室1厅 1卫1厨,52㎡,12:00前退房,宜住4人,整套普通公寓,36.67120013871832,117.0086039483537,【路客】初夏特惠丨建筑师的休闲空间丨市,4.9,608,5.0,tujia,5.0,距火车站直线1.7公里
绿城兰悦(文化东路22号),济南,3.0,1,近山师/山大/洪楼,历下区,,4714291,风花雪月之精品民宿,"个人房东,超赞房东,实名验证",155AkCL5952,https://www.tujia.com/detail/17124255.htm,46,3.0,17124255,14:00后入住,2室1厅 1卫1厨,70㎡,12:00前退房,宜住4人,整套酒店式公寓,36.660055,117.070843,【风花雪月】20忠橙设计师大房间格局投影,2.5,289,3.0,tujia,1.0,距山师/山大/洪楼直线2.2公里
绿城兰悦(文化东路与燕子山路交叉口西南角),济南,5.0,3,近山师/山大/洪楼,历下区,,4714291,风花雪月之精品民宿,"个人房东,超赞房东,实名验证",155AkCL5952,https://www.tujia.com/detail/18351530.htm,53,5.0,18351530,14:00后入住,2室1厅 1卫1厨,65㎡,12:00前退房,宜住4人（可加1人）,整套酒店式公寓,36.660055,117.070843,风花雪月18艺术情怀双床可住四人可投影,5.0,233,5.0,tujia,5.0,距山师/山大/洪楼直线2.2公里
文化东路万豪国际,济南,4.7,76,近大明湖/泉城广场/趵突泉,历下区,,192196,路客精品民宿BC5940,商户经营,400DxKc270,https://www.tujia.com/detail/483304.htm,452,4.7,483304,15:00后入住,4室2厅 1卫1厨,168㎡,12:00前退房,宜住8人,整套普通公寓,36.65892313158773,117.05403769363468,【路客】初夏8折丨千佛山丨趵突泉丨宽厚里,4.7,779,4.9,tujia,4.7,距大明湖/泉城广场/趵突泉直线2.5公里
泉城新时代商业广场-东南门,济南,5.0,10,近山师/山大/洪楼,历下区,,6109097,济南途掌柜121801精品民宿,自营民宿,133Btbb1159,https://www.tujia.com/detail/16463273.htm,67,5.0,16463273,14:00后入住,1室1厅 1卫1厨,52㎡,12:00前退房,宜住4人,整套普通公寓,36.667992,117.054955,【班禾】山大/山师/华强广场双床房,5.0,229,5.0,tujia,5.0,距山师/山大/洪楼直线1.7公里
历城区政府鲍山街道办事处,济南,5.0,6,,历城区,,6081153,济南途掌柜121456精品民宿,自营民宿,185DeqT8925,https://www.tujia.com/detail/16322181.htm,33,5.0,16322181,14:00后入住,1室1厅 1卫1厨,60㎡,12:00前退房,宜住2人,整套普通公寓,36.751053,117.187126,【班禾】济南东站/建筑大学/温馨一居室,5.0,179,5.0,tujia,5.0,
山钢新天地(丁豪广场斜对面路北山钢新天地广场),济南,5.0,9,近高新区/奥体中心,历下区,,5661636,美高精选公寓,"个人房东,超赞房东,实名验证",156EEoy5036,https://www.tujia.com/detail/15839398.htm,81,5.0,15839398,14:00后入住,1室0厅 1卫0厨,50㎡,12:00前退房,宜住2人,整套酒店式公寓,36.687636,117.125888,济南国际会展中心轻奢雅致大床房,4.9,148,4.8,tujia,5.0,距高新区/奥体中心直线646米
 刘长山路辅路(绿地欢乐颂),济南,4.6,5,近西客站,槐荫区,,4465714,西城民宿,"个人房东,超赞房东,实名验证",185EtAD9105,https://www.tujia.com/detail/11243688.htm,148,4.6,11243688,12:00后入住,1室0厅 1卫0厨,50㎡,12:00前退房,宜住2人,整套普通公寓,36.63123087314085,116.91077905121996,欢乐颂精品民宿,4.8,158,5.0,tujia,4.8,距西客站直线4.8公里
无影山中路/济齐路(路口)(艾特公寓),济南,4.2,24,近火车站,槐荫区,,1653486,济南蓝调国际公寓,"个人房东,实名验证",158EFuB4666,https://www.tujia.com/detail/8674268.htm,873,4.2,8674268,12:00后入住,1室0厅 1卫0厨,50㎡,12:00前退房,宜住2人,整套酒店式公寓,36.68872027759911,116.95740110718778,蓝调精品公寓豪华欧式风格主题房,4.2,115,4.3,tujia,4.2,距火车站直线3.3公里
贵和金街,济南,5.0,7,近英雄山/千佛山/舜耕会展中心,市中区,,6720183,济南香舍,"个人房东,超赞房东,实名验证",130EsEI2872,https://www.tujia.com/detail/18718624.htm,13,5.0,18718624,12:00后入住,1室0厅 1卫0厨,50㎡,12:00前退房,宜住2人（可加1人）,整套酒店式公寓,36.600109,117.012353,【香舍1】轻奢夜景大床公寓 近贵和/宜家,5.0,228,5.0,tujia,5.0,距英雄山/千佛山/舜耕会展中心直线4.9公里
和平路(泉城新时代商业广场1号楼),济南,5.0,1,近山师/山大/洪楼,历下区,,6081776,泉城都市之家,"个人房东,实名验证",130DjtE7866,https://www.tujia.com/detail/18205734.htm,10,5.0,18205734,12:00后入住,1室2厅 1卫1厨,66㎡,12:00前退房,宜住2人（可加2人）,整套普通公寓,36.6611069134842,117.05533299999993,华鲁温馨民宿之家,5.0,270,5.0,tujia,5.0,距山师/山大/洪楼直线2.3公里
 未来城-南门(未来城),济南,4.6,27,近高新区/奥体中心,历下区,,1850879,【小贝喔】美宿,"个人房东,超赞房东,实名验证",185Alev7826,https://www.tujia.com/detail/4999185.htm,293,4.5,4999185,14:00后入住,2室1厅 1卫0厨,70㎡,12:00前退房,宜住4人（可加1人）,整套酒店式公寓,36.693463,117.139646,【小贝喔】3 高新万达会展奥体北欧两居室,4.6,243,4.7,tujia,4.6,距高新区/奥体中心直线851米
 未来城-南门(未来城2号公寓),济南,5.0,6,近高新区/奥体中心,历下区,,1850879,【小贝喔】美宿,"个人房东,超赞房东,实名验证",185Alev7826,https://www.tujia.com/detail/6009565.htm,68,5.0,6009565,14:00后入住,1室0厅 1卫0厨,65㎡,12:00前退房,宜住2人（可加2人）,整套酒店式公寓,36.69220430843144,117.14033348357864,【小贝喔】6 万达广场会展奥体中心双床房,5.0,175,5.0,tujia,5.0,距高新区/奥体中心直线903米
K88名泉广场(南益名泉春晓),济南,4.6,14,近火车站,天桥区,,58547,济南帕罗国际公寓（点击头像预览更多房源）,"个人房东,实名验证",156EPwM7307,https://www.tujia.com/detail/10779987.htm,276,4.5,10779987,14:00后入住,1室0厅 1卫1厨,55㎡,12:00前退房,宜住4人,整套酒店式公寓,36.682492,116.990902,🥇💯【已消毒】大明湖高端茶艺双床房,4.6,179,4.6,tujia,4.5,距火车站直线454米
工业南路,济南,5.0,3,近高新区/奥体中心,历下区,,8646506,希铂瑞酒店（济南高新会展中心店）,"商户经营,实名验证",0531AKQu7888,https://www.tujia.com/detail/26647216.htm,,5.0,26647216,14:00后入住,1室0厅 1卫0厨,40㎡,12:00前退房,宜住2人,整套普通公寓,36.687165,117.123852,高新区/奥体中心豪华大床房,5.0,275,5.0,tujia,5.0,距高新区/奥体中心直线804米
绿地中央广场三区,济南,4.8,27,近西客站,槐荫区,,3918643,泉舍之家,"个人房东,超赞房东,实名验证",158DNdk4567,https://www.tujia.com/detail/9611050.htm,160,4.8,9611050,13:00后入住,2室2厅 1卫0厨,92㎡,12:00前退房,宜住4人,整套普通公寓,36.66918565604807,116.90314799999972,济南泉舍之家、干净舒适、简约风格两居室,4.9,219,4.9,tujia,4.9,距西客站直线553米
堤口路与通普路交汇处明泉春晓E,济南,0.0,0,近火车站,天桥区,,197972,济南璞怡精选公寓,"商户经营,实名验证",0531EGkn1678,https://www.tujia.com/detail/498072.htm,4,0.0,498072,14:00后入住,1室0厅 1卫0厨,55㎡,12:00前退房,宜住2人,整套普通公寓,36.682756,116.992111,火车站/长途汽车站商圈北欧风情大床房,0.0,185,0.0,tujia,0.0,距火车站直线480米
会展西路香格里拉西北塔,济南,4.5,4,近高新区/奥体中心,高新区,,97623,泉城广场芙蓉街服装设计师的家,"个人房东,实名验证",183DRqt7673,https://www.tujia.com/detail/1072284.htm,109,4.3,1072284,14:00后入住,1室0厅 1卫1厨,75㎡,12:00前退房,宜住2人,整套普通公寓,36.693487,117.128913,『暖气房』05高新万达会展时尚米开朗琪罗,4.6,207,4.8,tujia,4.8,距高新区/奥体中心直线174米
工业北路,济南,0.0,0,近高新区/奥体中心,历城区,,9957354,济南千鸿精致公寓,"商户经营,实名验证",185BkOE2995,https://www.tujia.com/detail/31430603.htm,,0.0,31430603,14:00后入住,1室0厅 0卫0厨,55㎡,12:00前退房,宜住4人,整套普通公寓,36.725585,117.141051,高新区/奥体中心行政商务双床房,0.0,298,0.0,tujia,0.0,距高新区/奥体中心直线3.8公里
济安新区,济南,5.0,102,近大明湖/泉城广场/趵突泉,天桥区,,93582,济南大叔😊法号：别闹,"个人房东,超赞房东,实名验证",133BkLx3699,https://www.tujia.com/detail/366317.htm,301,5.0,366317,18:00后入住,2室1厅 1卫1厨,88㎡,12:00前退房,宜住5人,整套普通公寓,36.67992922389064,117.01650062668924,免费停车13大明湖畔，三台空调三床住5人,5.0,358,5.0,tujia,5.0,距大明湖/泉城广场/趵突泉直线1.7公里
济南高新万达广场(万达影城3号门西侧),济南,4.3,3,近高新区/奥体中心,高新区,,2747733,高新万达海宸公寓,"个人房东,实名验证",132ChJc1102,https://www.tujia.com/detail/6508385.htm,71,4.3,6508385,14:00后入住,1室0厅 1卫0厨,52㎡,12:00前退房,宜住2人,整套酒店式公寓,36.692339,117.13492,高新万达&会展中心&一居大床房10,4.3,218,4.7,tujia,4.0,距高新区/奥体中心直线420米
花园路142-4(聚隆广场),济南,4.5,11,近山师/山大/洪楼,历城区,,208110,家有四季民宿,"个人房东,超赞房东,实名验证",156ApOB9844,https://www.tujia.com/detail/10183419.htm,206,4.8,10183419,14:00后入住,1室0厅 1卫1厨,50㎡,12:00前退房,宜住2人,整套普通公寓,36.688836037799724,117.06968929593504,超大空间印象城&聚隆广场洪楼教堂轻奢一居,4.7,198,4.5,tujia,4.8,距山师/山大/洪楼直线1公里
金桥国际(二环东路辅路)(金桥国际),济南,4.9,11,近山师/山大/洪楼,历城区,,61958,济南梧桐公寓,"个人房东,实名验证",183BpIs3032,https://www.tujia.com/detail/179549.htm,305,4.7,179549,14:00后入住,1室0厅 1卫1厨,40㎡,12:00前退房,宜住2人,整套普通公寓,36.69295086187717,117.07774627017011,【安心住】近山东大学/双人大床房,4.8,128,4.9,tujia,4.6,距山师/山大/洪楼直线1.8公里
聚隆广场,济南,5.0,16,近山师/山大/洪楼,历城区,,4432352,一壹短租,"个人房东,超赞房东,实名验证",150BVah2500,https://www.tujia.com/detail/11505376.htm,28,5.0,11505376,14:00后入住,1室1厅 1卫1厨,40㎡,12:00前退房,宜住2人,整套普通公寓,36.68711408667612,117.06842268516596,【已消毒】洪家楼山大印象城地中海大床房,5.0,158,5.0,tujia,5.0,距山师/山大/洪楼直线812米
刘长山路20号,济南,0.0,0,近大观园/和谐广场商圈,市中区,,4720801,唯爱民宿,商户经营,130DWla5310,https://www.tujia.com/detail/12524499.htm,18,0.0,12524499,14:00后入住,1室0厅 1卫0厨,70㎡,12:00前退房,宜住2人,整套普通公寓,36.63936245368967,116.98859561521756,北欧简约房,0.0,298,0.0,tujia,0.0,距大观园/和谐广场商圈直线2.6公里
馆驿街馆驿街新区,济南,5.0,32,近大明湖/泉城广场/趵突泉,市中区,,179765,泉城热宿,"个人房东,超赞房东,实名验证",155EfZY2600,https://www.tujia.com/detail/4153004.htm,293,5.0,4153004,14:00后入住,2室1厅 1卫1厨,78㎡,12:00前退房,宜住4人,整套普通公寓,36.673781,117.011709,空调房森林系超女，近万达，大明湖,5.0,288,5.0,tujia,4.9,距大明湖/泉城广场/趵突泉直线1.6公里
名泉广场,济南,5.0,7,近火车站,天桥区,,59216,济南米莱民宿（名泉广场火车站店）,"个人房东,超赞房东,实名验证",186BImf6795,https://www.tujia.com/detail/172388.htm,249,5.0,172388,14:00后入住,1室0厅 1卫1厨,55㎡,12:00前退房,宜住2人（可加1人）,整套普通公寓,36.682699,116.990793,北欧风情主题房{日租、月租公寓},5.0,168,5.0,tujia,5.0,距火车站直线478米
欧亚大观(B1座),济南,4.9,17,近大观园/和谐广场商圈,市中区,,2894005,泰春源温馨港湾,"个人房东,超赞房东,实名验证",152ARLU8738,https://www.tujia.com/detail/8525994.htm,60,4.9,8525994,14:00-24:00,1室1厅 1卫0厨,75㎡,12:00前退房,宜住4人,整套Loft复式,36.639378912091665,116.98871499999991,欧亚星海雅苑市中心别墅风格火车站芙蓉街,4.9,258,4.9,tujia,4.9,距大观园/和谐广场商圈直线2.6公里
阳光新路欧亚大观B,济南,0.0,0,近大观园/和谐广场商圈,市中区,,8649040,济南唯爱酒店,"商户经营,实名验证",0531BFfZ3016,https://www.tujia.com/detail/26665710.htm,,0.0,26665710,14:00后入住,1室0厅 1卫0厨,55㎡,12:00前退房,宜住2人,整套普通公寓,36.639379,116.988715,大观园/和谐广场商圈欧式大床房,0.0,292,0.0,tujia,0.0,距大观园/和谐广场商圈直线2.6公里
无影山中路41号翡翠郡,济南,4.4,11,近泺口服装城/动物园,天桥区,,97623,泉城广场芙蓉街服装设计师的家,"个人房东,实名验证",183DRqt7673,https://www.tujia.com/detail/331474.htm,221,4.8,331474,14:00后入住,1室0厅 1卫1厨,60㎡,12:00前退房,宜住1人,整套普通公寓,36.693163,116.994015,G动物园&汽车站&北欧混搭风您的理想之居,4.6,197,4.8,tujia,4.5,距泺口服装城/动物园直线1.6公里
堤口路名泉春晓E,济南,0.0,0,近火车站,天桥区,,9960406,常漫公寓(济南堤口路店),"商户经营,实名验证",187BKuH5068,https://www.tujia.com/detail/31461802.htm,,0.0,31461802,14:00后入住,1室0厅 1卫0厨,50㎡,12:00前退房,宜住2人,整套普通公寓,36.682651,116.991827,火车站/长途汽车站商圈文艺温馨ins风市景大床房,0.0,201,0.0,tujia,0.0,距火车站直线467米
仲宫镇锦绣川办事处,济南,4.9,9,近南部风景区,历城区,,4532074,梦红儿,"个人房东,实名验证",138BmJy1962,https://www.tujia.com/detail/12054862.htm,54,5.0,12054862,14:00后入住,2室2厅 2卫1厨,200㎡,12:00前退房,宜住4人,整套普通公寓,36.511253,117.15503,九如山金象山红叶谷锦绣川水库精品观景民宿,4.9,500,5.0,tujia,4.9,距南部风景区直线3.8公里
名泉广场,济南,4.6,5,近火车站,天桥区,,58547,济南帕罗国际公寓（点击头像预览更多房源）,"个人房东,实名验证",156EPwM7307,https://www.tujia.com/detail/259447.htm,174,4.6,259447,14:00后入住,1室0厅 1卫1厨,50㎡,12:00前退房,宜住2人,整套酒店式公寓,36.683061,116.992302,🥇💯【已消毒安心住】豪华地中海大床房,4.8,187,4.8,tujia,5.0,距火车站直线515米
海信贤文世家中心3号商务公寓,济南,5.0,12,近高新区/奥体中心,历下区,,6273828,济南途掌柜122920精品民宿,自营民宿,185DeqT8925,https://www.tujia.com/detail/17078034.htm,35,5.0,17078034,14:00后入住,1室0厅 1卫1厨,45㎡,12:00前退房,宜住2人,整套普通公寓,36.686319,117.119424,【班禾】高新/万达/会展/投影一居室07,5.0,275,5.0,tujia,5.0,距高新区/奥体中心直线1.2公里
恒大城,济南,5.0,8,近高新区/奥体中心,历城区,,4268587,Miss Wu～,"个人房东,实名验证",136EmNB4555,https://www.tujia.com/detail/10605477.htm,99,5.0,10605477,14:00后入住,1室0厅 1卫1厨,50㎡,12:00前退房,宜住2人,整套酒店式公寓,36.72584737183536,117.14655879386396,暖气房/智能投影/济南东站/自助入住,5.0,288,5.0,tujia,5.0,距高新区/奥体中心直线4公里
顺河西街名士阁小区,济南,4.8,37,近大明湖/泉城广场/趵突泉,天桥区,,184498,路客精品民宿BD1090,商户经营,400DxKc270,https://www.tujia.com/detail/470599.htm,199,4.8,470599,15:00后入住,2室1厅 1卫1厨,106㎡,12:00前退房,宜住4人,整套普通公寓,36.67989267601571,117.01862026356252,【路客】初夏特惠丨美式田园风格大两居室,4.9,1363,5.0,tujia,5.0,距大明湖/泉城广场/趵突泉直线1.6公里
堤口路50号(k88名泉广场E1公寓),济南,0.0,0,近火车站,天桥区,,4490830,常漫公寓,"个人房东,实名验证",178DuBj7272,https://www.tujia.com/detail/16370992.htm,28,0.0,16370992,14:00后入住,1室0厅 1卫0厨,55㎡,12:00前退房,宜住2人,整套普通公寓,36.68256799914846,116.99200931334238,高清投影/波西米亚木质/落地镜/干湿分离,0.0,269,0.0,tujia,0.0,距火车站直线458米
明湖西路,济南,0.0,0,近火车站,天桥区,,9951159,奈斯精品酒店(济南火车站店),"商户经营,实名验证",137EXdf0402,https://www.tujia.com/detail/34389076.htm,,0.0,34389076,14:00后入住,1室0厅 1卫0厨,40㎡,12:00前退房,宜住2人,整套普通公寓,36.675569,117.006671,大明湖/泉城广场商圈黑金主题大床房,0.0,272,0.0,tujia,0.0,距火车站直线1.4公里
龙奥北路8号,济南,4.7,6,近高新区/奥体中心,高新区,,102406,济南云天玉兰民宿公寓 奥体中心店,商户经营,0531-87BGDu00,https://www.tujia.com/detail/464735.htm,110,5.0,464735,12:00后入住,2室2厅 2卫1厨,146㎡,12:00前退房,宜住4人,整套酒店式公寓,36.65964,117.130479,豪华景观套房A,4.9,502,5.0,tujia,4.8,距高新区/奥体中心直线3.6公里
司里街小区北区 ,济南,4.8,65,近大明湖/泉城广场/趵突泉,历下区,,246328,路客精品民宿BE8160,商户经营,400DxKc270,https://www.tujia.com/detail/538311.htm,605,4.8,538311,15:00后入住,2室1厅 1卫1厨,62㎡,12:00前退房,宜住4人,整套普通公寓,36.66770936335894,117.02874824260425,【路客】初夏夜8折丨泉城广场丨宽厚里,4.8,912,4.9,tujia,4.9,距大明湖/泉城广场/趵突泉直线<100米
南益名泉春晓西区A1号楼,济南,4.7,3,近火车站,天桥区,,5378444,一条老狗,"商户经营,超赞房东",132DebV3262,https://www.tujia.com/detail/14390944.htm,28,5.0,14390944,13:00-23:00,1室1厅 1卫1厨,60㎡,12:00前退房,宜住2人,整套Loft复式,36.68109611998711,116.98673702517424,极简主义loft双层房独立空间楼下商超,4.9,188,5.0,tujia,5.0,距火车站直线528米
小清河北路与水屯路交叉口东北侧恒大滨河左岸公寓,济南,0.0,0,近北园,天桥区,,13281304,济南西诚loft公寓,"商户经营,实名验证",531DrOf9935,https://www.tujia.com/detail/39714424.htm,,0.0,39714424,14:00后入住,1室0厅 1卫0厨,35㎡,12:00前退房,宜住2人,整套普通公寓,36.712515,117.038605,北园商圈loft精品房,0.0,160,0.0,tujia,0.0,距北园直线1.1公里
王舍人街道 工业北路辅路,济南,0.0,0,近高新区/奥体中心,历城区,,6023242,百洋时尚主题公寓,商户经营,133Bemy6056,https://www.tujia.com/detail/20093627.htm,3,0.0,20093627,14:00后入住,1室0厅 1卫0厨,58㎡,12:00前退房,宜住2人,整套普通公寓,36.724882917796016,117.14700499999992,济南东站Enthusiasm大床房,0.0,194,0.0,tujia,0.0,距高新区/奥体中心直线3.9公里
隆悦花园,济南,4.3,3,近山师/山大/洪楼,历城区,,61958,济南梧桐公寓,"个人房东,实名验证",183BpIs3032,https://www.tujia.com/detail/21278244.htm,35,4.7,21278244,14:00后入住,2室1厅 1卫1厨,60㎡,12:00前退房,宜住4人（可加1人）,整套普通公寓,36.68789304294076,117.07040712581785,洪家楼印象城南邻经典两居温馨房,4.8,128,5.0,tujia,5.0,距山师/山大/洪楼直线947米
聚贤新区-北区(七号楼一单元),济南,4.7,19,近大明湖/泉城广场/趵突泉,天桥区,,2148442,考拉民宿,"个人房东,超赞房东,实名验证",132AIOn4555,https://www.tujia.com/detail/10419319.htm,180,4.7,10419319,14:00后入住,2室1厅 1卫1厨,75㎡,12:00前退房,宜住4人,整套普通公寓,36.678244,117.015073,【考拉民宿·11】北欧风清新宽敞投影两居,4.8,218,4.9,tujia,4.7,距大明湖/泉城广场/趵突泉直线1.7公里
明湖小区东区四区-15号楼,济南,5.0,7,近大明湖/泉城广场/趵突泉,历下区,,4975209,爱上垚家,"个人房东,超赞房东,实名验证",131BUNN8191,https://www.tujia.com/detail/12914651.htm,141,5.0,12914651,14:00后入住,1室1厅 1卫1厨,50㎡,12:00前退房,宜住2人,整套普通公寓,36.67380021075482,117.03770063672472,【燕子居】—1宽厚里&大明湖&趵突泉&芙,5.0,252,5.0,tujia,5.0,距大明湖/泉城广场/趵突泉直线1.1公里
 香港街1号(万象城上),济南,0.0,0,近高新区/奥体中心,历下区,,6244659,万象城悦玺民宿,"商户经营,超赞房东,实名验证",180AuSi6227,https://www.tujia.com/detail/16967553.htm,33,0.0,16967553,14:00后入住,1室0厅 1卫0厨,39㎡,12:00前退房,宜住2人,整套酒店式公寓,36.666161,117.106073,{悦玺}04奥体万象城省博投影精选一居室,0.0,298,0.0,tujia,0.0,距高新区/奥体中心直线3.6公里
小清河北路与水屯路交叉口东北侧恒大滨河左岸公寓,济南,0.0,0,近北园,天桥区,,13281304,济南西诚loft公寓,"商户经营,实名验证",531DrOf9935,https://www.tujia.com/detail/39714445.htm,,0.0,39714445,14:00后入住,1室0厅 1卫0厨,35㎡,12:00前退房,宜住2人,整套普通公寓,36.712515,117.038605,北园商圈精品双床房,0.0,115,0.0,tujia,0.0,距北园直线1.1公里
湖光山色家园,青岛,0.0,0,近大明湖/泉城广场/趵突泉,天桥区,,1067822,青岛南望观海名宿（影视主题）,商户经营,130DWop9395,https://www.tujia.com/detail/20035296.htm,26,0.0,20035296,15:00后入住,3室2厅 2卫1厨,143㎡,12:00前退房,宜住6人,整套普通公寓,36.688163690466666,117.02823574084691,【南望】大明湖旁宽厚里舒适三居室,0.0,1565,0.0,tujia,0.0,距大明湖/泉城广场/趵突泉直线2.3公里
荣盛时代国际,济南,5.0,4,近北园,历城区,,4271324,山东金海岸公寓,商户经营,180DGdL4555,https://www.tujia.com/detail/11235197.htm,197,5.0,11235197,14:00后入住,1室1厅 1卫1厨,55㎡,12:00前退房,宜住2人,整套普通公寓,36.708817,117.06829,高级商务大床套房,5.0,168,5.0,tujia,5.0,距北园直线1.9公里
 官扎营后街2号(官扎营南区),济南,5.0,8,近火车站,天桥区,,5113046,偶遇夏雨荷,"个人房东,超赞房东,实名验证",131CCOl1235,https://www.tujia.com/detail/13693352.htm,106,4.9,13693352,14:00后入住,2室1厅 1卫1厨,70㎡,12:00前退房,宜住4人（可加1人）,整套普通公寓,36.67961808160879,116.99904655063035,火车站【空调+暖气】长租优惠,4.9,218,5.0,tujia,4.9,距火车站直线671米
工业北路,济南,0.0,0,近高新区/奥体中心,历城区,,9957354,济南千鸿精致公寓,"商户经营,实名验证",185BkOE2995,https://www.tujia.com/detail/31430610.htm,,0.0,31430610,14:00后入住,1室0厅 0卫0厨,55㎡,12:00前退房,宜住4人,整套普通公寓,36.725585,117.141051,高新区/奥体中心豪华家庭房,0.0,275,0.0,tujia,0.0,距高新区/奥体中心直线3.8公里
段店镇 顺安路,济南,5.0,3,近西客站,槐荫区,,6621021,丁申峰,"个人房东,实名验证",132ByFJ3667,https://www.tujia.com/detail/19788098.htm,10,5.0,19788098,12:00后入住,1室1厅 1卫1厨,62㎡,12:00前退房,宜住2人（可加1人）,整套普通公寓,36.67084827697942,116.89560006169883,紧邻西客站,5.0,158,5.0,tujia,5.0,距西客站直线518米
名泉春晓88号名泉春晓公寓,济南,4.7,6,近火车站,天桥区,,34609,名泉假日公寓,"个人房东,实名验证",135DMdV5102,https://www.tujia.com/detail/1035229.htm,234,5.0,1035229,14:00后入住,1室0厅 1卫0厨,60㎡,12:00前退房,宜住2人,整套普通公寓,36.682095,116.99214,名泉春晓公寓清新绿幽居主题房（可月租）,4.9,168,5.0,tujia,5.0,距火车站直线407米
荣盛时代国际,济南,4.2,5,近北园,历城区,,5469080,都市驿家·时尚公寓,"个人房东,实名验证",132BaLW0959,https://www.tujia.com/detail/14788145.htm,114,4.2,14788145,14:00后入住,1室0厅 1卫0厨,42㎡,12:00前退房,宜住2人,整套酒店式公寓,36.70847655108333,117.0670033624602,北园全福荣盛时代·简欧豪华大床房可做饭,4.2,151,4.2,tujia,4.2,距北园直线1.8公里
47号诚基中心B8诚基中心公寓,济南,4.7,11,近山师/山大/洪楼,历下区,,97623,泉城广场芙蓉街服装设计师的家,"个人房东,实名验证",183DRqt7673,https://www.tujia.com/detail/296518.htm,488,4.6,296518,14:00后入住,2室1厅 1卫1厨,110㎡,12:00前退房,宜住4人,整套Loft复式,36.66776,117.054971,千佛山户外丛林两居室&带你拥抱大自然,4.7,288,4.8,tujia,4.6,距山师/山大/洪楼直线1.7公里
中铁奥体26方,济南,5.0,3,近高新区/奥体中心,高新区,,6073642,惬意时光公寓,"商户经营,超赞房东",156BSpC8869,https://www.tujia.com/detail/16964963.htm,10,5.0,16964963,13:00后入住,1室0厅 1卫0厨,26㎡,12:00前退房,宜住2人,整套酒店式公寓,36.66178791352846,117.16438299999993,奥体简约风格温馨一居公寓,5.0,199,5.0,tujia,5.0,距高新区/奥体中心直线4.6公里
 腊山河东路(梦世界华园),济南,4.9,14,近西客站,槐荫区,,2148442,考拉民宿,"个人房东,超赞房东,实名验证",132AIOn4555,https://www.tujia.com/detail/10953475.htm,72,5.0,10953475,14:00后入住,2室1厅 1卫1厨,90㎡,12:00前退房,宜住4人,整套普通公寓,36.668159,116.915976,考拉民宿·十三大两居全套智能家居临近宜家,5.0,318,5.0,tujia,4.9,距西客站直线1.5公里
南益名泉春晓,济南,4.3,9,近火车站,天桥区,,34609,名泉假日公寓,"个人房东,实名验证",135DMdV5102,https://www.tujia.com/detail/133123.htm,121,4.4,133123,14:00后入住,1室1厅 1卫1厨,76㎡,12:00前退房,宜住2人,整套Loft复式,36.68094,116.986957,名泉假日温馨公寓,4.6,168,4.8,tujia,4.7,距火车站直线502米
华福维嘉公寓,济南,5.0,3,近北园,历城区,,6025363,奈斯·福,"个人房东,超赞房东,实名验证",176EhtA3507,https://www.tujia.com/detail/17041263.htm,84,5.0,17041263,14:00-24:00,1室0厅 1卫0厨,55㎡,12:00前退房,宜住2人,整套普通公寓,36.704215,117.062571,休闲大空间|舒适大床房|北全福邻荣盛奈斯,5.0,228,5.0,tujia,5.0,距北园直线1.8公里
明湖北路 湖畔苑,济南,4.9,44,近大明湖/泉城广场/趵突泉,天桥区,,2499863,路客精品民宿BE2890,商户经营,400DxKc270,https://www.tujia.com/detail/5865015.htm,337,4.9,5865015,15:00后入住,4室1厅 1卫1厨,170㎡,12:00前退房,宜住8人,整套普通公寓,36.68497711201967,117.03461432889543,【路客】限时长租丨暖气房丨时尚杂志编辑者,4.9,1623,4.9,tujia,4.9,距大明湖/泉城广场/趵突泉直线2公里
恒大名都,济南,5.0,8,,历城区,,4180702,百合ly,"个人房东,实名验证",132EEsL9033,https://www.tujia.com/detail/10409365.htm,71,5.0,10409365,14:00后入住,2室2厅 1卫1厨,100㎡,12:00前退房,宜住3人,整套普通公寓,36.68387266140493,117.2292014053418,历城区欧式大两居,5.0,357,5.0,tujia,5.0,
泉城路26号世茂国际广场E座,济南,4.8,207,近大明湖/泉城广场/趵突泉,历下区,,9218,济南琨庭国际公寓（泉城芙蓉街店）,"商户经营,超赞房东",0531CBol5399,https://www.tujia.com/detail/38095.htm,607,4.8,38095,14:00后入住,1室1厅 1卫1厨,50㎡,12:00前退房,宜住2人,整套酒店式公寓,36.671505,117.03846,济南琨庭养生大床房,4.8,219,4.8,tujia,4.7,距大明湖/泉城广场/趵突泉直线999米
天泰山大e号(山大路197号天泰山大e号),济南,4.6,11,近山师/山大/洪楼,历下区,,4043866,美斯特精品民宿,"个人房东,超赞房东,实名验证",189EYlB0225,https://www.tujia.com/detail/9946721.htm,232,4.9,9946721,14:00后入住,1室1厅 1卫0厨,42㎡,12:00前退房,宜住4人,整套普通公寓,36.66277108845346,117.0621075974308,泉城广场&趵突泉&宽厚里简约网红主题,4.8,287,4.9,tujia,4.9,距山师/山大/洪楼直线2公里
良秀路(领秀城贵和金街鲁能美丽汇),济南,5.0,10,近英雄山/千佛山/舜耕会展中心,市中区,,3918027,深藍（点击头像查看更多房源）,"个人房东,超赞房东,实名验证",138DVjY6789,https://www.tujia.com/detail/10574859.htm,247,5.0,10574859,14:00后入住,1室0厅 1卫1厨,40㎡,12:00前退房,宜住2人,整套普通公寓,36.60002986985083,117.01208092357544,【暮眠】轻奢ins风超大投影夜景公寓,5.0,259,5.0,tujia,5.0,距英雄山/千佛山/舜耕会展中心直线4.9公里
华福维嘉公寓,济南,0.0,0,近北园,历城区,,6339635,山东希尔公寓市景大床房,商户经营,199BWoX9555,https://www.tujia.com/detail/17452359.htm,40,0.0,17452359,14:00后入住,1室0厅 1卫0厨,40㎡,12:00前退房,宜住2人（可加1人）,整套普通公寓,36.703658,117.062472,豪华市景大床房,0.0,128,0.0,tujia,0.0,距北园直线1.9公里
聚贤新区南区2号楼,济南,5.0,1,近大明湖/泉城广场/趵突泉,天桥区,,2148442,考拉民宿,"个人房东,超赞房东,实名验证",132AIOn4555,https://www.tujia.com/detail/19465475.htm,22,5.0,19465475,14:00后入住,2室1厅 1卫1厨,65㎡,12:00前退房,宜住1人（可加1人）,整套普通公寓,36.67640106980811,117.01446907119102,考拉十六空调免费近大明湖ins风清新两居,5.0,201,5.0,tujia,5.0,距大明湖/泉城广场/趵突泉直线1.6公里
华福维嘉公寓,济南,5.0,1,近山师/山大/洪楼,历城区,,6616842,美悦坊主题公寓,"个人房东,实名验证",158BZDb8007,https://www.tujia.com/detail/18873422.htm,15,5.0,18873422,13:00后入住,1室0厅 1卫0厨,36㎡,12:00前退房,宜住2人,整套普通公寓,36.685699462890625,117.0719985961914,【美悦坊主题公寓】欧式时尚大床房,5.0,168,5.0,tujia,5.0,距山师/山大/洪楼直线802米
广厦聚隆广场(洪楼南路1号),济南,4.8,6,近山师/山大/洪楼,历城区,,208110,家有四季民宿,"个人房东,超赞房东,实名验证",156ApOB9844,https://www.tujia.com/detail/10018548.htm,157,4.3,10018548,14:00后入住,1室0厅 1卫1厨,50㎡,12:00前退房,宜住2人,整套酒店式公寓,36.688836037799724,117.06968929593504,山大印象城聚隆广场洪楼教堂大明湖经典美宿,4.7,158,4.8,tujia,4.8,距山师/山大/洪楼直线1公里
 刘长山路20号(阳光新路与卧龙路交汇处欧亚大观乐活城),济南,5.0,2,近大观园/和谐广场商圈,市中区,,5606770,万家,"个人房东,实名验证",150CyHF6405,https://www.tujia.com/detail/14884563.htm,20,5.0,14884563,13:00后入住,1室1厅 1卫0厨,89㎡,12:00前退房,宜住2人（可加1人）,整套Loft复式,36.63915877682847,116.98876095254111,幸福主题公寓,5.0,258,5.0,tujia,5.0,距大观园/和谐广场商圈直线2.6公里
济南市长清区经十西路港基大厦A座斯维登度假公寓,济南,5.0,2,近长清大学城,长清区,,4571750,济南斯维登度假公寓（经十西路）,斯维登,155Etbm2819,https://www.tujia.com/detail/11735403.htm,67,5.0,11735403,12:00后入住,1室1厅 1卫1厨,40㎡,14:00前退房,宜住2人,整套普通公寓,36.565115,116.763669,济南斯维登经十西路舒适度假大床房,5.0,192,5.0,tujia,5.0,距长清大学城直线4.9公里
明湖西路,济南,0.0,0,近火车站,天桥区,,9951159,奈斯精品酒店(济南火车站店),"商户经营,实名验证",137EXdf0402,https://www.tujia.com/detail/34389104.htm,,0.0,34389104,14:00后入住,1室0厅 1卫0厨,45㎡,12:00前退房,宜住2人,整套普通公寓,36.675569,117.006671,大明湖/泉城广场商圈精选日式简约大床房,0.0,343,0.0,tujia,0.0,距火车站直线1.4公里
彩虹大酒店(少年路)(彩虹大酒店东与鸿来小院间通道进入),济南,4.5,32,近大明湖/泉城广场/趵突泉,天桥区,,182220,倾心主题设计师的家,"个人房东,超赞房东,实名验证",155AIxx4499,https://www.tujia.com/detail/480722.htm,357,4.6,480722,14:00后入住,3室2厅 1卫1厨,140㎡,12:00前退房,宜住7人,整套普通公寓,36.678807658543136,117.0180007968909,出门遇见大明湖 趵突泉石榴园林大三居,4.7,569,4.9,tujia,4.6,距大明湖/泉城广场/趵突泉直线1.5公里
万达广场Y3公寓,济南,4.8,18,近高新区/奥体中心,高新区,,4925607,高新万达会展中心易成国际民宿,"个人房东,实名验证",158CqrZ7913,https://www.tujia.com/detail/12806886.htm,47,4.8,12806886,14:00后入住,1室0厅 1卫1厨,40㎡,12:00前退房,宜住2人（可加1人）,整套酒店式公寓,36.69238110882012,117.1359393272959,大床房(限时抢购),4.8,228,4.8,tujia,4.9,距高新区/奥体中心直线511米
 东关大街71号(长盛北区),济南,4.8,25,近山师/山大/洪楼,历下区,,1860105,大自然的美容师,"个人房东,超赞房东,实名验证",155CUrZ3173,https://www.tujia.com/detail/11335479.htm,226,4.8,11335479,15:00后入住,1室0厅 1卫1厨,40㎡,12:00前退房,宜住2人,整套普通公寓,36.68331552755834,117.04911809975654,🏆【安心住】钰见大明湖摩洛哥式风民宿,4.8,198,4.9,tujia,4.8,距山师/山大/洪楼直线1.6公里
中国银行ATM(工业南路支行)(未来城),济南,4.5,4,近高新区/奥体中心,历下区,,1850879,【小贝喔】美宿,"个人房东,超赞房东,实名验证",185Alev7826,https://www.tujia.com/detail/9844283.htm,32,4.3,9844283,14:00后入住,1室0厅 1卫0厨,65㎡,12:00前退房,宜住2人,整套酒店式公寓,36.69421983136353,117.14062999999985,【小贝喔】11万达国际会展奥体欧式大床房,4.7,175,5.0,tujia,5.0,距高新区/奥体中心直线953米
北园青年居易小区,济南,4.0,34,近泺口服装城/动物园,天桥区,,21321,济南杰特公寓,"个人房东,实名验证",137DtLE1038,https://www.tujia.com/detail/78876.htm,702,4.0,78876,14:00后入住,1室0厅 1卫1厨,23㎡,12:00前退房,宜住2人,整套酒店式公寓,36.692645,117.00826,【已消毒】济南杰特公寓普通大床房,4.1,108,4.1,tujia,4.1,距泺口服装城/动物园直线2公里
港基大厦,济南,5.0,6,近长清大学城,长清区,,5353615,天驿民宿（经十西路店）,"个人房东,超赞房东,实名验证",155AhqX8739,https://www.tujia.com/detail/14125546.htm,86,5.0,14125546,12:00后入住,1室0厅 1卫1厨,53㎡,12:00前退房,宜住2人（可加1人）,整套酒店式公寓,36.565002575478395,116.76390610033853,天驿民宿（品质厨房~品质生活）,5.0,117,5.0,tujia,5.0,距长清大学城直线4.9公里
和信大厦,济南,0.0,0,近火车站,天桥区,,9971494,济南橙果公寓,"商户经营,实名验证",138AUky1171,https://www.tujia.com/detail/31478749.htm,,0.0,31478749,14:00后入住,1室0厅 1卫0厨,45㎡,12:00前退房,宜住2人,整套普通公寓,36.675589,117.006706,大明湖/泉城广场商圈粉色系列影院网红房,0.0,496,0.0,tujia,0.0,距火车站直线1.4公里
明湖北路湖畔苑小区,济南,4.8,82,近大明湖/泉城广场/趵突泉,天桥区,,184525,路客精品民宿BD1840,商户经营,400DxKc270,https://www.tujia.com/detail/470495.htm,920,4.7,470495,15:00后入住,2室1厅 1卫1厨,90㎡,12:00前退房,宜住4人,整套普通公寓,36.68514832850068,117.03062994719892,【路客】初夏特惠丨宽厚里芙蓉街丨趵突泉,4.8,701,4.8,tujia,4.8,距大明湖/泉城广场/趵突泉直线2公里
南益名泉春晓,济南,4.6,36,近火车站,天桥区,,58547,济南帕罗国际公寓（点击头像预览更多房源）,"个人房东,实名验证",156EPwM7307,https://www.tujia.com/detail/183212.htm,523,4.6,183212,14:00后入住,1室0厅 1卫1厨,50㎡,12:00前退房,宜住2人,整套酒店式公寓,36.682955,116.992374,🥇💯【安心住】爆款浪漫欧式带吊椅房,4.6,178,4.7,tujia,4.6,距火车站直线504米
 明湖西路北刘新 ,济南,4.4,92,近火车站,天桥区,,184449,路客精品民宿BC8410,商户经营,400DxKc270,https://www.tujia.com/detail/470488.htm,869,4.5,470488,15:00后入住,2室0厅 1卫0厨,60㎡,12:00前退房,宜住4人,整套普通公寓,36.677801727290266,117.00883812081268,【路客】初夏特惠丨趵突泉,4.6,583,4.7,tujia,4.7,距火车站直线1.5公里
长春观街与剪子巷交叉口(市中区泺源街道回民小区),济南,5.0,28,近大明湖/泉城广场/趵突泉,市中区,,182220,倾心主题设计师的家,"个人房东,超赞房东,实名验证",155AIxx4499,https://www.tujia.com/detail/6504297.htm,335,4.9,6504297,14:00后入住,3室2厅 1卫1厨,128㎡,12:00前退房,宜住6人（可加1人）,整套普通公寓,36.66782268226192,117.02081249313714,临泉.逸居：趵突泉大明湖芙蓉街泉城广场,4.9,799,5.0,tujia,4.8,距大明湖/泉城广场/趵突泉直线671米
万象城(万象城上),济南,0.0,0,近高新区/奥体中心,历下区,,6244659,万象城悦玺民宿,"商户经营,超赞房东,实名验证",180AuSi6227,https://www.tujia.com/detail/19793334.htm,36,0.0,19793334,14:00后入住,1室1厅 1卫0厨,60㎡,12:00前退房,宜住2人,整套酒店式公寓,36.666104,117.10598,【悦玺•LOFT一居】08奥体万象城,0.0,358,0.0,tujia,0.0,距高新区/奥体中心直线3.6公里
世通·新生活家园-南区南门112号楼,威海,4.5,8,近高新区/奥体中心,高新区,,2413749,鱼小妖,"个人房东,超赞房东,实名验证",139DKuQ1555,https://www.tujia.com/detail/6671156.htm,231,4.5,6671156,14:00后入住,2室2厅 2卫1厨,100㎡,12:00前退房,宜住4人,整套Loft复式,36.69452371871841,117.1279070053423,凸素-济南高新万达会展Loft品质公寓,4.8,385,5.0,tujia,5.0,距高新区/奥体中心直线320米
明湖西路,济南,5.0,43,近火车站,天桥区,,85363,明湖雅舍,"个人房东,超赞房东,实名验证",133Crvi0208,https://www.tujia.com/detail/335141.htm,481,4.9,335141,12:00-24:00,2室1厅 1卫1厨,80㎡,12:00前退房,宜住4人,整套普通公寓,36.680231,117.012092,新中式茶室风&大明湖畔的静谧,4.9,317,4.9,tujia,4.9,距火车站直线1.8公里
齐州路绿地中央广场一区,济南,4.5,49,近西客站,槐荫区,,184281,路客精品民宿BC1220,商户经营,400DxKc270,https://www.tujia.com/detail/470152.htm,544,4.7,470152,15:00后入住,2室1厅 1卫1厨,95㎡,12:00前退房,宜住4人,整套普通公寓,36.67096121270853,116.90263965374267,【路客】初夏夜8折丨西客站超赞两居丨方特,4.7,754,4.7,tujia,4.8,距西客站直线360米
 香港街1号(万象城上),济南,5.0,3,近高新区/奥体中心,历下区,,6244659,万象城悦玺民宿,"商户经营,超赞房东,实名验证",180AuSi6227,https://www.tujia.com/detail/16967833.htm,40,5.0,16967833,14:00后入住,1室0厅 1卫0厨,39㎡,12:00前退房,宜住2人,整套酒店式公寓,36.666161,117.106073,{悦玺}02奥体万象城省博投影精选一居室,5.0,298,5.0,tujia,5.0,距高新区/奥体中心直线3.6公里
明湖北路湖畔苑小区,济南,4.7,81,近大明湖/泉城广场/趵突泉,天桥区,,184632,路客精品民宿BD7260,商户经营,400DxKc270,https://www.tujia.com/detail/470362.htm,795,4.7,470362,15:00后入住,2室1厅 1卫1厨,98㎡,12:00前退房,宜住4人,整套普通公寓,36.68504455259391,117.0317551961067,【路客】初夏特惠『湖畔风情』,4.8,701,4.8,tujia,4.9,距大明湖/泉城广场/趵突泉直线2公里
工业北路,济南,5.0,1,近高新区/奥体中心,历城区,,9957354,济南千鸿精致公寓,"商户经营,实名验证",185BkOE2995,https://www.tujia.com/detail/31431002.htm,,4.0,31431002,14:00后入住,1室0厅 0卫0厨,55㎡,12:00前退房,宜住4人,整套普通公寓,36.725585,117.141051,高新区/奥体中心豪华双床房,4.8,251,5.0,tujia,5.0,距高新区/奥体中心直线3.8公里
魏家庄街道万达盛景苑,济南,5.0,16,近大明湖/泉城广场/趵突泉,市中区,,5610291,路客精品民宿BJ1500,商户经营,400DxKc270,https://www.tujia.com/detail/14816740.htm,93,5.0,14816740,15:00后入住,2室1厅 1卫1厨,56㎡,12:00前退房,宜住4人,整套普通公寓,36.66985706600705,117.01215347628664,【路客】初夏夜8折丨趵突泉丨大明湖,5.0,754,5.0,tujia,5.0,距大明湖/泉城广场/趵突泉直线1.5公里
中海国际社区(百度地图搜索中海国际社区c3),济南,5.0,10,近英雄山/千佛山/舜耕会展中心,市中区,,5688593,埃及猫,"个人房东,超赞房东,实名验证",155AwxP2000,https://www.tujia.com/detail/15459200.htm,46,4.8,15459200,14:00后入住,1室0厅 1卫1厨,37㎡,12:00前退房,宜住2人,整套普通公寓,36.61602952704175,116.98581366665498,中海国际公馆北欧山景公寓,4.9,198,5.0,tujia,4.8,距英雄山/千佛山/舜耕会展中心直线4.9公里
巴黎花园(明湖西路),济南,5.0,10,近大明湖/泉城广场/趵突泉,天桥区,,4584882,如归－Minshuku,"个人房东,超赞房东,实名验证",188DfPe0779,https://www.tujia.com/detail/35431992.htm,12,5.0,35431992,14:00后入住,1室0厅 1卫1厨,65㎡,12:00前退房,宜住2人,整套普通公寓,36.68302731048816,117.01762378235456,云想衣裳花想容,5.0,378,5.0,tujia,5.0,距大明湖/泉城广场/趵突泉直线2公里
明湖天地D座,济南,5.0,2,近山师/山大/洪楼,历下区,,5427353,奔驰的面包,"商户经营,超赞房东",130AAKZ9200,https://www.tujia.com/detail/15040068.htm,13,5.0,15040068,14:00后入住,1室1厅 1卫1厨,59㎡,12:00前退房,宜住2人,整套普通公寓,36.68429982576818,117.04727992924111,中式风格&大明湖&芙蓉街&济南站&千佛山,5.0,307,5.0,tujia,5.0,距山师/山大/洪楼直线1.8公里
泉城路街道 大明湖路274号,济南,5.0,18,近大明湖/泉城广场/趵突泉,历下区,,4717861,嫩黄嫩黄的蛋黄,"个人房东,超赞房东,实名验证",133Eprz4624,https://www.tujia.com/detail/18400642.htm,157,5.0,18400642,14:00后入住,2室1厅 1卫1厨,75㎡,12:00前退房,宜住4人,整套普通公寓,36.67802417218332,117.02459108558845,【泉水之心】紧邻大明湖芙蓉街宽厚里湖景房,5.0,388,5.0,tujia,5.0,距大明湖/泉城广场/趵突泉直线1.2公里
工人新村北村街道 西工商河路(工人新村南村西区),济南,5.0,7,近泺口服装城/动物园,天桥区,,5203458,九度空间,"个人房东,超赞房东,实名验证",133AAsP7222,https://www.tujia.com/detail/17154117.htm,13,5.0,17154117,14:00后入住,2室1厅 1卫1厨,75㎡,12:00前退房,宜住4人（可加2人）,整套普通公寓,36.70351454839421,116.9937862670017,桥风落地式公寓,5.0,196,5.0,tujia,4.9,距泺口服装城/动物园直线459米
魏家庄街道鸿景苑小区,济南,4.7,94,近大明湖/泉城广场/趵突泉,市中区,,184429,路客精品民宿BC7290,商户经营,400DxKc270,https://www.tujia.com/detail/470513.htm,711,4.7,470513,15:00后入住,2室1厅 1卫1厨,55㎡,12:00前退房,宜住4人,整套普通公寓,36.67133407488601,117.01003707631959,【路客】初夏夜8折丨墨缘斋丨趵突泉丨大明,4.7,530,4.8,tujia,4.8,距大明湖/泉城广场/趵突泉直线1.7公里
明湖小区东区四区-12号楼,济南,4.9,27,近大明湖/泉城广场/趵突泉,历下区,,2889588,济南燕子居,"个人房东,超赞房东,实名验证",150EJyK1113,https://www.tujia.com/detail/9879794.htm,566,4.9,9879794,14:00后入住,1室0厅 1卫1厨,50㎡,12:00前退房,宜住2人,整套普通公寓,36.674263341110134,117.03764673839412,济南—芙蓉街&泉城路&趵突泉&大明湖大一,5.0,239,5.0,tujia,5.0,距大明湖/泉城广场/趵突泉直线1.1公里
山大路交叉口华强广场C座,济南,4.7,22,近山师/山大/洪楼,历下区,,32264,乐滋.234风尚主题民宿公寓,"个人房东,超赞房东,实名验证",156ANyK1081,https://www.tujia.com/detail/108269.htm,561,4.6,108269,14:00后入住,1室0厅 1卫1厨,50㎡,12:00前退房,宜住2人,整套酒店式公寓,36.672998,117.061128,风尚主题房,4.7,198,4.8,tujia,4.8,距山师/山大/洪楼直线912米
绿城兰悦(文化东路与燕子山路交叉口),济南,4.5,2,近山师/山大/洪楼,历下区,,4714291,风花雪月之精品民宿,"个人房东,超赞房东,实名验证",155AkCL5952,https://www.tujia.com/detail/16403318.htm,57,4.5,16403318,14:00后入住,2室1厅 1卫1厨,70㎡,12:00前退房,宜住4人,整套酒店式公寓,36.660055,117.070843,【风花雪月】520济南日式榻榻米100寸,4.5,286,4.5,tujia,4.5,距山师/山大/洪楼直线2.2公里
万象城(万象城),济南,5.0,1,近高新区/奥体中心,历下区,,6244659,万象城悦玺民宿,"商户经营,超赞房东,实名验证",180AuSi6227,https://www.tujia.com/detail/17282364.htm,27,5.0,17282364,14:00后入住,1室1厅 1卫0厨,68㎡,12:00前退房,宜住2人,整套普通公寓,36.666253,117.106125,【万象城】省博物馆奥体中心1居品质套房,5.0,358,5.0,tujia,5.0,距高新区/奥体中心直线3.6公里
佛山苑一区-9号楼,济南,4.8,13,近大明湖/泉城广场/趵突泉,历下区,,1039896, 扬帆起航,"个人房东,超赞房东,实名验证",153BxjM4263,https://www.tujia.com/detail/12433730.htm,158,4.8,12433730,14:00-23:00,1室1厅 1卫1厨,46㎡,12:00前退房,宜住2人,整套普通公寓,36.66484821693933,117.03408046551952,【安心住扬帆起航】奥斯卡&大明湖&已消毒,4.8,228,4.8,tujia,4.8,距大明湖/泉城广场/趵突泉直线599米
 花园路35号,济南,5.0,2,近山师/山大/洪楼,历城区,,4184160,济南树妙民宿（点击头像预览更多房源）,"个人房东,超赞房东,实名验证",137EQhh3304,https://www.tujia.com/detail/17009427.htm,53,5.0,17009427,14:00后入住,1室0厅 1卫1厨,60㎡,12:00前退房,宜住2人（可加2人）,整套酒店式公寓,36.689960609969724,117.06935323516886,🥇💯已消毒【树妙】北欧风甄选城景公寓,5.0,142,5.0,tujia,5.0,距山师/山大/洪楼直线1.1公里
华福维嘉公寓,济南,5.0,8,近北园,历城区,,6025363,奈斯·福,"个人房东,超赞房东,实名验证",176EhtA3507,https://www.tujia.com/detail/16070258.htm,95,4.6,16070258,14:00后入住,2室1厅 1卫1厨,75㎡,12:00前退房,宜住4人,整套普通公寓,36.704074,117.062688,【奈斯·福】北园大街\简约清新风两居公寓,4.9,288,5.0,tujia,4.9,距北园直线1.8公里
大润发向东100米(区政府对面)南益名泉春晓,济南,4.4,34,近火车站,天桥区,,71972,济南璞怡精选公寓,"商户经营,实名验证",0531-88AycP78,https://www.tujia.com/detail/208671.htm,1164,4.3,208671,14:00后入住,1室0厅 1卫1厨,55㎡,12:00前退房,宜住2人,整套普通公寓,36.681635,116.992212,北欧风情大床房,4.3,217,4.3,tujia,4.2,距火车站直线357米
泉城路世茂国际广场,济南,4.9,431,近大明湖/泉城广场/趵突泉,历下区,,4110,济南斯维登服务公寓（大明湖世茂广场）,斯维登,0531EWGA8333,https://www.tujia.com/detail/18913.htm,412,4.9,18913,14:00后入住,1室0厅 1卫1厨,75㎡,12:00前退房,宜住2人,整套酒店式公寓,36.670628,117.036817,【安心房】济南斯维登世茂国际广场豪华大床房,4.9,367,4.9,tujia,4.9,距大明湖/泉城广场/趵突泉直线825米
卧龙路与阳光新路交叉口,济南,5.0,7,近大观园/和谐广场商圈,槐荫区,,1151570,初懿（点击头像，可查看全部房源）,"个人房东,超赞房东,实名验证",139CnCX6916,https://www.tujia.com/detail/15990430.htm,33,5.0,15990430,15:00后入住,3室1厅 2卫1厨,110㎡,12:00前退房,宜住6人,整套普通公寓,36.63830709785541,116.98921217076547,巨幕投影★loft复式★精致三卧大床房,5.0,498,5.0,tujia,5.0,距大观园/和谐广场商圈直线2.7公里
经一路和信广场,济南,5.0,1,近火车站,天桥区,,8160818,米莱公寓(济南火车站店),"商户经营,实名验证",156CVfg7878,https://www.tujia.com/detail/24710582.htm,,5.0,24710582,14:00后入住,1室0厅 1卫0厨,49㎡,12:00前退房,宜住2人,整套酒店式公寓,36.675557,117.006518,大明湖/泉城广场商圈臻选文艺主题房,5.0,285,5.0,tujia,5.0,距火车站直线1.4公里
东营路,济南,5.0,17,近西客站,槐荫区,,133738,木易雅居,"个人房东,超赞房东,实名验证",133BQpT9883,https://www.tujia.com/detail/10323538.htm,105,4.9,10323538,14:00后入住,2室2厅 1卫1厨,90㎡,12:00前退房,宜住5人,整套普通公寓,36.67970491214073,116.92914939889896,山东国际会展中心旁近济南西站方特尊享两居,4.9,398,4.8,tujia,4.9,距西客站直线2.7公里
堤口路名泉春晓E,济南,0.0,0,近火车站,天桥区,,9960406,常漫公寓(济南堤口路店),"商户经营,实名验证",187BKuH5068,https://www.tujia.com/detail/31461830.htm,,0.0,31461830,14:00后入住,1室0厅 1卫0厨,34㎡,12:00前退房,宜住2人,整套普通公寓,36.682651,116.991827,火车站/长途汽车站商圈波西米亚投影大床房,0.0,181,0.0,tujia,0.0,距火车站直线467米
大明翠庭湖畔苑(南1门),济南,5.0,24,近大明湖/泉城广场/趵突泉,天桥区,,122080,团团圆圆,"个人房东,超赞房东,实名验证",139DqJS8699,https://www.tujia.com/detail/14260583.htm,626,5.0,14260583,14:00后入住,3室2厅 2卫1厨,150㎡,12:00前退房,宜住8人,整套普通公寓,36.6850478963829,117.03195631128992,5济南大明湖北门➕大明湖站➕豪华宽敞三居,5.0,800,5.0,tujia,5.0,距大明湖/泉城广场/趵突泉直线2公里
荣盛时代国际,济南,5.0,4,近北园,历城区,,4075359,未来度假公寓,"商户经营,超赞房东",155ELXu5858,https://www.tujia.com/detail/10061178.htm,240,5.0,10061178,14:00后入住,1室0厅 1卫0厨,40㎡,12:00前退房,宜住2人,整套酒店式公寓,36.708816508028974,117.06828793933948,未来假日公寓%豪华商务大床房,5.0,168,5.0,tujia,5.0,距北园直线1.9公里
兴港路,济南,5.0,167,近高新区/奥体中心,历下区,,2509747,赛车手刘阳的家(点击头像浏览我更多房子),"个人房东,超赞房东,实名验证",187AjRo9531,https://www.tujia.com/detail/7789769.htm,2286,5.0,7789769,15:00后入住,3室1厅 1卫1厨,120㎡,12:00前退房,宜住6人,整套普通公寓,36.6801976359232,117.17178371307938,【安心住】赛车手刘阳的家万科会展中心奥体,5.0,498,5.0,tujia,5.0,距高新区/奥体中心直线3.9公里
长盛小区(南区四区)(长盛小区南区四区),济南,5.0,2,近山师/山大/洪楼,历下区,,5599707,雨和民宿,"商户经营,超赞房东,实名验证",183CFgC6885,https://www.tujia.com/detail/19797156.htm,50,5.0,19797156,14:00后入住,1室0厅 1卫0厨,20㎡,12:00前退房,宜住2人,整套普通公寓,36.68073239926164,117.0463333526756,摩洛哥之谜 老东门 奥斯卡 大明湖,5.0,150,5.0,tujia,5.0,距山师/山大/洪楼直线1.8公里
大明湖·泉馨居-4号楼,济南,4.9,14,近山师/山大/洪楼,历下区,,4975209,爱上垚家,"个人房东,超赞房东,实名验证",131BUNN8191,https://www.tujia.com/detail/14242838.htm,215,4.9,14242838,14:00后入住,2室1厅 1卫1厨,65㎡,12:00前退房,宜住4人,整套普通公寓,36.686318213771045,117.0422550456603,【燕子居】—1大明湖＆泉城路＆趵突泉两室,4.9,338,4.9,tujia,4.9,距山师/山大/洪楼直线2.3公里
 潍坊路辅路(小区距山东国际会展中心800米，距济南森林公园1KM，距济南印象1.5KM),济南,5.0,3,近西客站,槐荫区,,6188519,蜗牛邮递,"个人房东,实名验证",156EBGj7748,https://www.tujia.com/detail/16939126.htm,25,5.0,16939126,13:00后入住,4室2厅 2卫1厨,166㎡,12:00前退房,宜住7人（可加1人）,整套普通公寓,36.679187824332026,116.93376911377332,山东国际会展+森林公园+印象济南+西客站,5.0,698,5.0,tujia,5.0,距西客站直线3公里
华润中心SOHO办公悦玺公寓(万象城上),济南,0.0,0,近高新区/奥体中心,历下区,,6244659,万象城悦玺民宿,"商户经营,超赞房东,实名验证",180AuSi6227,https://www.tujia.com/detail/17030581.htm,32,0.0,17030581,14:00后入住,1室0厅 1卫0厨,40㎡,12:00前退房,宜住2人,整套酒店式公寓,36.666119,117.106065,【悦玺•澜•花颜月貌】11万象城免费停车,0.0,258,0.0,tujia,0.0,距高新区/奥体中心直线3.6公里
 舜风路(凤凰路与舜风路交汇处西行100米),济南,5.0,4,近高新区/奥体中心,历下区,,6092164,蛋壳小寓,"商户经营,超赞房东",156EEgJ8222,https://www.tujia.com/detail/16379301.htm,38,4.8,16379301,14:00后入住,1室0厅 1卫1厨,30㎡,12:00前退房,宜住2人,整套酒店式公寓,36.681682334976934,117.15346194839974,蛋壳公寓奥体济南东站省力东院齐鲁软件园,4.9,176,5.0,tujia,4.8,距高新区/奥体中心直线2.4公里
 良秀路,济南,4.9,8,近英雄山/千佛山/舜耕会展中心,市中区,,2863856,浪漫温馨可爱之家,"个人房东,超赞房东,实名验证",186DgDe1513,https://www.tujia.com/detail/15154609.htm,26,5.0,15154609,14:00后入住,2室2厅 1卫1厨,88㎡,12:00前退房,宜住4人（可加4人）,整套普通公寓,36.601423284510595,117.02301334163657,鲁能贵和二环南英雄山济大兴隆财经电大两居,5.0,214,5.0,tujia,5.0,距英雄山/千佛山/舜耕会展中心直线4.5公里
腊山河东路,济南,5.0,22,近西客站,槐荫区,,133738,木易雅居,"个人房东,超赞房东,实名验证",133BQpT9883,https://www.tujia.com/detail/10138409.htm,140,5.0,10138409,14:00后入住,2室2厅 1卫1厨,89㎡,12:00前退房,宜住4人,整套普通公寓,36.68036337379029,116.9170582067347,山东国际会展中心旁近济南西站方特阳光两居,5.0,358,5.0,tujia,5.0,距西客站直线1.7公里
民营经科园路(恒大滨河左岸4号公寓楼),济南,4.2,5,近北园,天桥区,,3786595,海星精品loft公寓,商户经营,155BuWZ7971,https://www.tujia.com/detail/9585955.htm,409,4.4,9585955,13:00后入住,1室1厅 1卫0厨,60㎡,12:00前退房,宜住4人,整套Loft复式,36.71230142707183,117.03502608152124,近大明湖/泉城广场/宽厚里上下两层大空间,4.6,169,4.6,tujia,5.0,距北园直线1.4公里
匡山街道无影山中路268号(恒生艾特公寓四号楼),济南,5.0,9,近火车站,槐荫区,,1653486,济南蓝调国际公寓,"个人房东,实名验证",158EFuB4666,https://www.tujia.com/detail/14311634.htm,138,5.0,14311634,12:00后入住,1室0厅 1卫0厨,50㎡,12:00前退房,宜住2人（可加1人）,整套酒店式公寓,36.687823130084354,116.9567633102757,高铁站西部国际会展中心一居室,5.0,138,5.0,tujia,5.0,距火车站直线3.3公里
明湖西路,济南,0.0,0,近火车站,天桥区,,9951159,奈斯精品酒店(济南火车站店),"商户经营,实名验证",137EXdf0402,https://www.tujia.com/detail/34389139.htm,1,0.0,34389139,14:00后入住,1室0厅 1卫0厨,50㎡,12:00前退房,宜住2人,整套普通公寓,36.675569,117.006671,大明湖/泉城广场商圈千年木简约大床房,0.0,272,0.0,tujia,0.0,距火车站直线1.4公里
address,city_name,cleanliness,comment_count,distance_tip,district_name,fangdong_house_count,fangdong_id,fangdong_nick_name,fangdong_tags,fangdong_tel,fangwu_src,favorite_count,house_decoration,house_id,house_in,house_jishi,house_mianji,house_out,house_ren_count,house_type,latitude,longitude,name,overall,price,services,source,traffic,unit_infor
欧亚大观(阳光新路67号),济南,5.0,1,近大观园/和谐广场商圈,市中区,,2850941,风花雪月的漫画师之家,"个人房东,超赞房东,实名验证",132DUHw6633,https://www.tujia.com/detail/17125809.htm,75,5.0,17125809,14:00后入住,2室1厅 2卫1厨,130㎡,12:00前退房,宜住4人（可加2人）,整套Loft复式,36.639263,116.988715,市中LOFT复试两层注情怀两室投影密码,4.8,368,4.0,tujia,5.0,距大观园/和谐广场商圈直线2.6公里
梁王新城,济南,5.0,38,,历城区,,5369722,济南新东站♡遥墙机场♡两居大床民宿,"个人房东,超赞房东,实名验证",158CkeP2158,https://www.tujia.com/detail/14163640.htm,167,5.0,14163640,14:00后入住,2室2厅 1卫1厨,98㎡,12:00前退房,宜住3人（可加1人）,整套普通公寓,36.75001962054744,117.18806799603992,济南东站♡遥墙机场♡两居大床民宿,5.0,239,5.0,tujia,4.9,
欧亚大观(阳光100美爵酒店南面欧亚大观商都),济南,4.9,9,近大观园/和谐广场商圈,市中区,,2850941,风花雪月的漫画师之家,"个人房东,超赞房东,实名验证",132DUHw6633,https://www.tujia.com/detail/11327905.htm,163,4.9,11327905,14:00后入住,1室1厅 1卫1厨,90㎡,12:00前退房,宜住2人（可加2人）,整套Loft复式,36.639379,116.988715,【风花雪月】济南市中LOFT两层新设计,5.0,368,5.0,tujia,5.0,距大观园/和谐广场商圈直线2.6公里
纬一路与馆驿街交叉口(和信广场),济南,4.7,15,近火车站,天桥区,,218128,和之信精品民宿（点击头像浏览更多房源）,"商户经营,超赞房东,实名验证",137EXdf0402,https://www.tujia.com/detail/11591063.htm,233,4.8,11591063,14:00后入住,1室0厅 1卫0厨,35㎡,12:00前退房,宜住2人,整套普通公寓,36.675109994021504,117.0062329947102,温情暖色调一居近火车站大明湖趵突泉芙蓉街,4.8,268,4.8,tujia,4.8,距火车站直线1.4公里
梦世界LOMO公馆(经十西路218号),济南,5.0,51,近西客站,槐荫区,,2345828,初心丫,"个人房东,超赞房东,实名验证",186ExXh8185,https://www.tujia.com/detail/5480666.htm,504,4.9,5480666,13:00后入住,1室0厅 1卫1厨,57㎡,12:00前退房,宜住2人,整套酒店式公寓,36.65658279215682,116.9157466806901,高铁西客站旁温馨阳光房整租，相遇温馨大床,4.9,178,5.0,tujia,4.9,距西客站直线2.3公里
小清河北路,济南,5.0,8,近北园,天桥区,,3262297,家芬菲（点击头像预览更多房源）,"个人房东,超赞房东,实名验证",187DSed6768,https://www.tujia.com/detail/18125899.htm,78,5.0,18125899,14:00后入住,1室1厅 1卫1厨,70㎡,12:00前退房,宜住2人（可加1人）,整套Loft复式,36.71253683476672,117.03504204743622,💯安心住【家芬菲】云锦湖可做饭loft,5.0,186,5.0,tujia,5.0,距北园直线1.4公里
名辉豪庭,济南,4.5,30,近北园,历城区,,4031448,济南途掌柜108734精品民宿,自营民宿,185DeqT8925,https://www.tujia.com/detail/9900521.htm,148,4.8,9900521,14:00后入住,3室1厅 1卫1厨,117㎡,12:00前退房,宜住6人,整套普通公寓,36.706337,117.082879,【班禾】济钢中学/山大/洪楼优雅三居室,4.7,379,4.7,tujia,4.7,距北园直线3.2公里
泉城路26号济南世茂国际广场D座,济南,4.7,194,近大明湖/泉城广场/趵突泉,历下区,,49143,济南逸枫家书民宿公寓（世茂国际广场店）,商户经营,185EajD7559,https://www.tujia.com/detail/153353.htm,2871,4.7,153353,14:00后入住,1室0厅 1卫1厨,60㎡,12:00前退房,宜住2人,整套酒店式公寓,36.670596,117.036862,济南逸枫家书豪华观景大床房（世茂广场）,4.8,328,4.8,tujia,4.8,距大明湖/泉城广场/趵突泉直线827米
明湖北路一号湖畔苑,济南,4.9,29,近大明湖/泉城广场/趵突泉,天桥区,,5588171,路客精品民宿BI9320,商户经营,400DxKc270,https://www.tujia.com/detail/14756995.htm,149,4.9,14756995,15:00后入住,4室2厅 1卫1厨,144㎡,12:00前退房,宜住8人,整套普通公寓,36.68497711201967,117.03461432889543,【路客】初夏特惠『泉城印象』大明湖,4.9,1611,4.9,tujia,4.9,距大明湖/泉城广场/趵突泉直线2公里
聚贤南区,济南,0.0,0,近大明湖/泉城广场/趵突泉,天桥区,,13297964,平淡的言初岩印,"个人房东,实名验证",186DqwS8156,https://www.tujia.com/detail/39731028.htm,1,0.0,39731028,14:00-23:00,2室1厅 1卫1厨,60㎡,12:00前退房,宜住4人,整套普通公寓,36.676823,117.014254,明湖小居近大明湖，趵突泉，泉城广场简约风,0.0,215,0.0,tujia,0.0,距大明湖/泉城广场/趵突泉直线1.6公里
南益·名泉广场-E1座(堤口路长途客运中心正对面),济南,4.8,126,近火车站,天桥区,,5240929,轻居雅阁精选主题公寓,"个人房东,超赞房东,实名验证",132EsvR0223,https://www.tujia.com/detail/13827101.htm,1356,4.8,13827101,14:00后入住,1室0厅 1卫0厨,55㎡,12:00前退房,宜住2人,整套酒店式公寓,36.682605,116.991803,火车站大明湖趵突泉芙蓉街北欧精选轻居,4.8,136,4.9,tujia,4.7,距火车站直线462米
和信城市广场(经一路和纬一路交叉口北100米),济南,5.0,13,近火车站,天桥区,,218128,和之信精品民宿（点击头像浏览更多房源）,"商户经营,超赞房东,实名验证",137EXdf0402,https://www.tujia.com/detail/13976236.htm,230,5.0,13976236,14:00后入住,2室1厅 1卫1厨,70㎡,12:00前退房,宜住4人,整套酒店式公寓,36.675494563986994,117.00825372429716,Loft时尚都市风火车站大明湖趵突泉两居,5.0,378,5.0,tujia,5.0,距火车站直线1.5公里
洪家楼西路,济南,5.0,4,近山师/山大/洪楼,历城区,,2380541,梦享家.6,"个人房东,超赞房东,实名验证",186EOug5576,https://www.tujia.com/detail/17300179.htm,34,5.0,17300179,14:00后入住,1室0厅 1卫0厨,57㎡,12:00前退房,宜住2人,整套普通公寓,36.68832826654761,117.06869128212719,伯爵.家/大明湖/印象城/4k高清巨幕,5.0,330,5.0,tujia,5.0,距山师/山大/洪楼直线949米
 经四路商圈纬一路112号(经三纬一路交叉路口公寓楼),济南,4.5,130,近火车站,市中区,,43145,济南万达广场民宿（点击头像预览更多房源）,商户经营,131CToZ5532,https://www.tujia.com/detail/137136.htm,3260,4.5,137136,12:00后入住,1室1厅 1卫1厨,50㎡,12:00前退房,宜住2人,整套普通公寓,36.66996480443383,117.005945536947,🏅💯【已消毒-安心住】万达广场公寓,4.6,168,4.8,tujia,4.8,距火车站直线1.6公里
德州路(龙湖名景台小区),济南,5.0,47,近西客站,槐荫区,,4650941,爱旅游的Wendy,"个人房东,超赞房东,实名验证",186ERMl1746,https://www.tujia.com/detail/11827292.htm,592,5.0,11827292,15:00后入住,2室1厅 1卫1厨,95㎡,12:00前退房,宜住5人（可加2人）,整套普通公寓,36.69470340270114,116.91680668119189,带私家花园-户外休闲--整套高端花园美居,5.0,588,5.0,tujia,5.0,距西客站直线2.8公里
兴港路,济南,5.0,112,近高新区/奥体中心,历下区,,2509747,赛车手刘阳的家(点击头像浏览我更多房子),"个人房东,超赞房东,实名验证",187AjRo9531,https://www.tujia.com/detail/8414400.htm,1597,5.0,8414400,15:00后入住,1室1厅 1卫1厨,80㎡,12:00前退房,宜住2人,整套普通公寓,36.6801976359232,117.17178371307938,【安心住】套房高品质一居万科会展中心奥体,5.0,363,5.0,tujia,5.0,距高新区/奥体中心直线3.9公里
欧亚大观(阳光新路与卧龙路交叉口欧亚大观商都),济南,5.0,4,近大观园/和谐广场商圈,市中区,,2850941,风花雪月的漫画师之家,"个人房东,超赞房东,实名验证",132DUHw6633,https://www.tujia.com/detail/11327807.htm,64,5.0,11327807,14:00后入住,1室1厅 1卫1厨,100㎡,12:00前退房,宜住2人（可加2人）,整套Loft复式,36.639379,116.988715,【风花雪月】济南市中LOFT两层全新设计,5.0,368,5.0,tujia,5.0,距大观园/和谐广场商圈直线2.6公里
绿城兰悦(文化东路与燕子山路交叉口),济南,5.0,9,近山师/山大/洪楼,历下区,,4714291,风花雪月之精品民宿,"个人房东,超赞房东,实名验证",155AkCL5952,https://www.tujia.com/detail/16403283.htm,400,5.0,16403283,14:00后入住,2室1厅 1卫1厨,70㎡,12:00前退房,宜住4人,整套酒店式公寓,36.660055,117.070843,【风花雪月】162济南日式榻榻米100寸,5.0,259,5.0,tujia,5.0,距山师/山大/洪楼直线2.2公里
天桥东街4号楼(距火车站1.2千米，步行10分钟可到达),济南,4.9,11,近火车站,天桥区,,4800895,艾兜儿小窝,"个人房东,超赞房东,实名验证",186CNLG9006,https://www.tujia.com/detail/13448226.htm,111,4.9,13448226,14:00后入住,2室1厅 1卫1厨,50㎡,12:00前退房,宜住4人,整套普通公寓,36.682163829742464,117.00676999999986,~高清巨幕~火车站旁城市中心两居生活馆,4.9,132,5.0,tujia,4.8,距火车站直线1.4公里
明湖小区,济南,5.0,5,近大明湖/泉城广场/趵突泉,历下区,,4680425,我爱燕子居,"个人房东,超赞房东,实名验证",159ATNB0385,https://www.tujia.com/detail/18434676.htm,191,5.0,18434676,14:00后入住,1室1厅 1卫1厨,68㎡,12:00前退房,宜住2人,整套普通公寓,36.67565450713764,117.0382355441325,【燕子居】津—芙蓉街&大明湖&趵突泉,5.0,299,5.0,tujia,5.0,距大明湖/泉城广场/趵突泉直线1.3公里
 舜风路(凤凰路与舜风路交汇处西行100米),济南,5.0,1,近高新区/奥体中心,历下区,,6092164,蛋壳小寓,"商户经营,超赞房东",156EEgJ8222,https://www.tujia.com/detail/17409099.htm,19,5.0,17409099,14:00后入住,1室0厅 1卫1厨,30㎡,12:00前退房,宜住2人,整套酒店式公寓,36.681682334976934,117.15346194839974,蛋壳民宿，雅致小屋高新区汉峪金融中心建筑,5.0,178,5.0,tujia,5.0,距高新区/奥体中心直线2.4公里
大明湖路2号东湖大厦,济南,4.4,11,近大明湖/泉城广场/趵突泉,历下区,,5707997,路客精品民宿BJ0570,商户经营,400DxKc270,https://www.tujia.com/detail/15109459.htm,88,4.3,15109459,15:00后入住,3室1厅 1卫1厨,140㎡,12:00前退房,宜住6人,整套普通公寓,36.67913109688699,117.04244035628727,【路客】初夏夜8折丨步行2分钟大明湖,4.5,977,4.6,tujia,4.9,距大明湖/泉城广场/趵突泉直线1.8公里
巴黎花园,济南,4.8,48,近大明湖/泉城广场/趵突泉,天桥区,,1039896, 扬帆起航,"个人房东,超赞房东,实名验证",153BxjM4263,https://www.tujia.com/detail/1847090.htm,443,4.8,1847090,14:00-23:00,2室1厅 1卫1厨,120㎡,12:00前退房,宜住6人,整套普通公寓,36.682899,117.01739,【安心住&扬帆起航】花海&大明湖&已消毒,4.8,388,4.9,tujia,4.8,距大明湖/泉城广场/趵突泉直线2公里
明湖北路1号 大明翠庭湖畔苑,济南,5.0,8,近大明湖/泉城广场/趵突泉,天桥区,,6292735,路客精品民宿BC7180,商户经营,400DxKc270,https://www.tujia.com/detail/17166801.htm,78,5.0,17166801,15:00后入住,2室1厅 2卫1厨,141㎡,12:00前退房,宜住5人,整套普通公寓,36.68569145567644,117.03214803846274,【路客】初夏夜8折丨『光阴的故事』大明湖,5.0,569,5.0,tujia,5.0,距大明湖/泉城广场/趵突泉直线2公里
欧亚大观(阳光100美爵酒店南面欧亚大观商都),济南,5.0,3,近大观园/和谐广场商圈,市中区,,2850941,风花雪月的漫画师之家,"个人房东,超赞房东,实名验证",132DUHw6633,https://www.tujia.com/detail/10391403.htm,120,5.0,10391403,14:00后入住,1室1厅 2卫1厨,90㎡,12:00前退房,宜住2人（可加2人）,整套Loft复式,36.639379,116.988715,济南上下两层LOFT高格调新理念自助入住,5.0,338,5.0,tujia,5.0,距大观园/和谐广场商圈直线2.6公里
欧亚大观(阳光100美乐汇南面欧亚大观商都),济南,5.0,3,近大观园/和谐广场商圈,市中区,,2850941,风花雪月的漫画师之家,"个人房东,超赞房东,实名验证",132DUHw6633,https://www.tujia.com/detail/13347629.htm,93,5.0,13347629,14:00后入住,2室1厅 2卫1厨,140㎡,12:00前退房,宜住4人（可加2人）,整套Loft复式,36.639263,116.988715,【风花雪月】济南市中LOFT两层豪装做饭,5.0,298,5.0,tujia,5.0,距大观园/和谐广场商圈直线2.6公里
欧亚大观(阳光100美乐汇南面欧亚大观商都),济南,4.6,16,近大观园/和谐广场商圈,市中区,,2850941,风花雪月的漫画师之家,"个人房东,超赞房东,实名验证",132DUHw6633,https://www.tujia.com/detail/8912982.htm,251,4.7,8912982,14:00后入住,2室1厅 2卫1厨,140㎡,12:00前退房,宜住4人（可加2人）,整套Loft复式,36.639379,116.988715,LOFT上下两层可做饭小清新,4.8,488,4.9,tujia,4.9,距大观园/和谐广场商圈直线2.6公里
鑫苑·鑫中心,济南,5.0,20,近山师/山大/洪楼,历城区,,5654349,湖心,"个人房东,超赞房东,实名验证",133Bxbm8086,https://www.tujia.com/detail/15686742.htm,181,5.0,15686742,14:00后入住,1室1厅 1卫1厨,90㎡,12:00前退房,宜住4人,整套Loft复式,36.69250624704929,117.09132353928294,凭绿色健康码入住＊LOFT近大明湖趵突泉,5.0,249,5.0,tujia,5.0,距山师/山大/洪楼直线2.6公里
汽车厂东路泺祥小区,济南,4.8,103,近泺口服装城/动物园,天桥区,,216510,路客精品民宿BE5360,商户经营,400DxKc270,https://www.tujia.com/detail/512801.htm,593,4.8,512801,15:00后入住,1室1厅 1卫1厨,48㎡,12:00前退房,宜住2人,整套普通公寓,36.69356547385461,116.99933744765376,【路客】初夏夜8折丨汽车站、火车站,4.9,477,4.9,tujia,4.9,距泺口服装城/动物园直线1.6公里
华福维嘉公寓,济南,0.0,0,近北园,历城区,,6025363,奈斯·福,"个人房东,超赞房东,实名验证",176EhtA3507,https://www.tujia.com/detail/17041144.htm,30,0.0,17041144,14:00-24:00,1室0厅 1卫0厨,45㎡,12:00前退房,宜住2人,整套普通公寓,36.704215,117.062571,华福V+公寓|舒适商务大床房|北全福奈斯,0.0,178,0.0,tujia,0.0,距北园直线1.8公里
佳兴澜山(地址可搜索章丘佳兴天城小区公交车4－5-11路),济南,5.0,8,,章丘区,,6180665,济南馨澜居日租民宿公寓,商户经营,156EAZN8728,https://www.tujia.com/detail/16677424.htm,31,4.9,16677424,12:00-次日1:00,3室2厅 1卫1厨,130㎡,12:00前退房,宜住6人（可加2人）,整套酒店式公寓,36.679253914677375,117.53854199999994,章丘区大学城精装三室公寓民宿,5.0,304,5.0,tujia,5.0,
槐荫政务中心(经十西路下楼就是公交车直达),济南,5.0,12,近西客站,槐荫区,,5657793,双齐民宿,"个人房东,超赞房东,实名验证",151EBfv2355,https://www.tujia.com/detail/16928528.htm,87,5.0,16928528,13:00后入住,1室0厅 1卫0厨,48㎡,12:00前退房,宜住2人,整套普通公寓,36.65853691331741,116.90770199999993,高铁西站，山东国际会展中心，肿瘤医院宜家,5.0,161,5.0,tujia,5.0,距西客站直线1.8公里
北园大街,济南,5.0,1,近北园,历城区,,8163233,铂爵公馆(济南荣盛时代广场店),"商户经营,实名验证",0531Dlpd3199,https://www.tujia.com/detail/24715118.htm,,5.0,24715118,14:00后入住,1室0厅 1卫0厨,40㎡,12:00前退房,宜住2人,整套普通公寓,36.709022,117.067859,北园商圈简约灰白大床房,5.0,154,5.0,tujia,5.0,距北园直线1.9公里
明湖西路,济南,0.0,0,近火车站,天桥区,,9951159,奈斯精品酒店(济南火车站店),"商户经营,实名验证",137EXdf0402,https://www.tujia.com/detail/34389118.htm,,0.0,34389118,14:00后入住,1室0厅 1卫0厨,45㎡,12:00前退房,宜住2人,整套普通公寓,36.675569,117.006671,大明湖/泉城广场商圈日式浪漫樱花双床房,0.0,364,0.0,tujia,0.0,距火车站直线1.4公里
阳光新路欧亚大观B,济南,0.0,0,近大观园/和谐广场商圈,市中区,,8649040,济南唯爱酒店,"商户经营,实名验证",0531BFfZ3016,https://www.tujia.com/detail/26665731.htm,,0.0,26665731,14:00后入住,1室0厅 1卫0厨,70㎡,12:00前退房,宜住2人,整套普通公寓,36.639379,116.988715,大观园/和谐广场商圈北欧简约大床房,0.0,332,0.0,tujia,0.0,距大观园/和谐广场商圈直线2.6公里
鞭指巷13号,济南,4.9,42,近大明湖/泉城广场/趵突泉,历下区,,1039896, 扬帆起航,"个人房东,超赞房东,实名验证",153BxjM4263,https://www.tujia.com/detail/1177170.htm,540,4.9,1177170,14:00-23:00,2室1厅 1卫1厨,65㎡,12:00前退房,宜住4人,整套普通公寓,36.673344314064835,117.026112495646,【安心住扬帆起航】临水照花&大明湖&消毒,4.9,368,4.9,tujia,5.0,距大明湖/泉城广场/趵突泉直线663米
北全福居委会北恣街南首,济南,4.7,22,近北园,历城区,,4067,济南市河畔迷你公寓,商户经营,133EWrA8250,https://www.tujia.com/detail/18672.htm,230,4.6,18672,14:00后入住,1室0厅 1卫1厨,30㎡,12:00前退房,宜住2人,整套酒店式公寓,36.705562,117.061587,济南历城区河畔迷你标准房,4.7,97,4.7,tujia,4.7,距北园直线1.6公里
南益名泉春晓西区A1号楼,济南,5.0,4,近火车站,天桥区,,5378444,一条老狗,"商户经营,超赞房东",132DebV3262,https://www.tujia.com/detail/14390237.htm,157,5.0,14390237,13:00-23:00,1室1厅 1卫1厨,60㎡,12:00前退房,宜住4人（可加2人）,整套Loft复式,36.68109611998711,116.98673702517424,简约风情复式公寓，独立空间，近车站医院。,5.0,178,5.0,tujia,5.0,距火车站直线528米
工业北路恒大城,济南,4.9,66,近高新区/奥体中心,历城区,,184363,路客精品民宿BC6010,商户经营,400DxKc270,https://www.tujia.com/detail/470359.htm,106,4.9,470359,15:00后入住,1室0厅 1卫1厨,59㎡,12:00前退房,宜住2人,整套普通公寓,36.72559050959271,117.14619208327632,【路客】初夏特惠丨恒大城丨浪漫之家丨银座,4.9,477,4.9,tujia,4.9,距高新区/奥体中心直线4公里
龙奥北路南路,济南,5.0,9,近高新区/奥体中心,高新区,,6273506,济南途掌柜122916精品民宿,自营民宿,185DeqT8925,https://www.tujia.com/detail/17076515.htm,28,5.0,17076515,14:00后入住,1室0厅 1卫0厨,26㎡,12:00前退房,宜住2人,整套普通公寓,36.661787,117.164362,【班禾】高新/奥体/中铁26方一居室,4.9,189,5.0,tujia,4.6,距高新区/奥体中心直线4.6公里
解放路中建国熙台,济南,4.7,20,近山师/山大/洪楼,历下区,,184427,路客精品民宿BC6290,商户经营,400DxKc270,https://www.tujia.com/detail/470427.htm,285,4.8,470427,15:00后入住,3室1厅 1卫1厨,158㎡,12:00前退房,宜住6人,整套普通公寓,36.67372816891399,117.05923111564368,【路客】初夏特惠丨国熙台温馨三居丨大明湖,4.8,1463,4.9,tujia,5.0,距山师/山大/洪楼直线951米
和信城市广场(万达广场北，大明湖西边。),济南,4.0,10,近火车站,天桥区,,58547,济南帕罗国际公寓（点击头像预览更多房源）,"个人房东,实名验证",156EPwM7307,https://www.tujia.com/detail/11705135.htm,258,3.9,11705135,14:00后入住,1室0厅 1卫1厨,50㎡,12:00前退房,宜住2人,整套酒店式公寓,36.675494563986994,117.00825372429716,🥇💯【已消毒】趵突泉万达火车站大床房,4.0,179,3.9,tujia,4.1,距火车站直线1.5公里
address,city_name,cleanliness,comment_count,distance_tip,district_name,fangdong_house_count,fangdong_id,fangdong_nick_name,fangdong_tags,fangdong_tel,fangwu_src,favorite_count,house_decoration,house_id,house_in,house_jishi,house_mianji,house_out,house_ren_count,house_type,latitude,longitude,name,overall,price,services,source,traffic,unit_infor
小清河北路,济南,5.0,59,近北园,天桥区,,3262297,家芬菲（点击头像预览更多房源）,"个人房东,超赞房东,实名验证",187DSed6768,https://www.tujia.com/detail/10664753.htm,709,5.0,10664753,14:00后入住,1室1厅 1卫1厨,66㎡,12:00前退房,宜住3人,整套Loft复式,36.71253683476672,117.03504204743622,💯安心住【家芬菲】大明湖宽厚里loft,5.0,186,5.0,tujia,4.8,距北园直线1.4公里
明湖天地E座(明湖东路6号),济南,4.9,11,近山师/山大/洪楼,历下区,,5427353,奔驰的面包,"商户经营,超赞房东",130AAKZ9200,https://www.tujia.com/detail/15485779.htm,162,4.9,15485779,14:00后入住,1室1厅 1卫1厨,53㎡,12:00前退房,宜住2人,整套普通公寓,36.68420549266956,117.04866894700154,【路朋】精装一室湖景房紧邻大明湖、趵突泉,4.9,367,4.9,tujia,4.9,距山师/山大/洪楼直线1.7公里
荣盛时代国际,济南,4.7,29,近北园,历城区,,4075359,未来度假公寓,"商户经营,超赞房东",155ELXu5858,https://www.tujia.com/detail/10061269.htm,1176,4.9,10061269,14:00后入住,1室1厅 1卫1厨,55㎡,12:00前退房,宜住2人,整套酒店式公寓,36.708816508028974,117.06828793933948,未来公寓%荣盛时代%豪华北欧套房,4.9,150,4.9,tujia,4.9,距北园直线1.9公里
中国农业银行(和平支行)(和平路诚基中心农业银行下车，离民宿几百米，如坐公交车到和平路历山东路站下车。1),济南,5.0,148,近山师/山大/洪楼,历下区,,189176,党姐的家,"个人房东,超赞房东,实名验证",185EwGx9893,https://www.tujia.com/detail/477472.htm,657,5.0,477472,14:00后入住,1室1厅 1卫1厨,50㎡,12:00前退房,宜住2人,整套普通公寓,36.666893,117.053123,静心,5.0,238,5.0,tujia,5.0,距山师/山大/洪楼直线1.9公里
花园路290号华夏福地,济南,5.0,46,近大明湖/泉城广场/趵突泉,历下区,,5539437,路客精品民宿BJ0990,商户经营,400DxKc270,https://www.tujia.com/detail/14637323.htm,281,5.0,14637323,15:00后入住,3室1厅 1卫1厨,108㎡,12:00前退房,宜住6人,整套普通公寓,36.68481882468154,117.03940472850135,【路客】初夏夜8折丨【一笑青城】印象城,5.0,918,5.0,tujia,5.0,距大明湖/泉城广场/趵突泉直线2.1公里
齐州路,济南,5.0,48,近西客站,槐荫区,,3826684,济南途掌柜102293精品民宿,自营民宿,155BBws1080,https://www.tujia.com/detail/9356929.htm,227,5.0,9356929,14:00后入住,2室1厅 1卫1厨,102㎡,12:00前退房,宜住4人,整套普通公寓,36.667178934300125,116.90466032872959,【班禾】济南西站/方特/西部会展二居室,5.0,346,5.0,tujia,5.0,距西客站直线813米
绿城兰悦(文化东路22号),济南,5.0,4,近山师/山大/洪楼,历下区,,4714291,风花雪月之精品民宿,"个人房东,超赞房东,实名验证",155AkCL5952,https://www.tujia.com/detail/17124626.htm,144,5.0,17124626,14:00后入住,1室0厅 1卫1厨,55㎡,12:00前退房,宜住2人,整套酒店式公寓,36.659997,117.070951,【风花雪月】16日式榻榻米情侣大床房投影,5.0,249,5.0,tujia,5.0,距山师/山大/洪楼直线2.3公里
领秀城,济南,5.0,13,近英雄山/千佛山/舜耕会展中心,市中区,,5787006,路客精品民宿BJ1300,商户经营,400DxKc270,https://www.tujia.com/detail/15354662.htm,83,5.0,15354662,15:00后入住,3室1厅 2卫1厨,122㎡,12:00前退房,宜住6人,整套普通公寓,36.602663314590124,117.01507071097153,【路客】初夏夜8折丨『漫山香宿』市中区,5.0,977,5.0,tujia,5.0,距英雄山/千佛山/舜耕会展中心直线4.6公里
 卓越时代广场,济南,4.8,10,近山师/山大/洪楼,历下区,,1168083,民宿小哥John Qi,"个人房东,超赞房东,实名验证",152CCIU8336,https://www.tujia.com/detail/5832395.htm,186,4.8,5832395,15:00后入住,2室1厅 1卫1厨,75㎡,12:00前退房,宜住4人,整套普通公寓,36.658118,117.093131,万象城&燕山立交桥&省妇幼&省博物馆&,4.8,398,4.8,tujia,4.8,距山师/山大/洪楼直线3.4公里
明湖西路,济南,5.0,12,近大明湖/泉城广场/趵突泉,天桥区,,6279218,小明.Z,"个人房东,超赞房东,实名验证",186DYYc0787,https://www.tujia.com/detail/17118998.htm,137,4.9,17118998,14:00后入住,1室2厅 1卫1厨,72㎡,12:00前退房,宜住2人（可加1人）,整套普通公寓,36.68113153384041,117.01648816590655,【明湖一里℃】大明湖宽厚里火车站·湖景房,4.9,215,5.0,tujia,4.8,距大明湖/泉城广场/趵突泉直线1.8公里
欧亚大观(阳光100美乐汇南面欧亚大观商都),济南,4.8,23,近大观园/和谐广场商圈,市中区,,2850941,风花雪月的漫画师之家,"个人房东,超赞房东,实名验证",132DUHw6633,https://www.tujia.com/detail/8912765.htm,488,4.8,8912765,14:00后入住,2室1厅 2卫1厨,120㎡,12:00前退房,宜住4人（可加2人）,整套Loft复式,36.639379,116.988715,LOFT上下两层小清新两室观山,4.8,488,4.8,tujia,4.7,距大观园/和谐广场商圈直线2.6公里
南益名泉春晓西区-A1号楼(天桥堤口路大润发西邻（十一中对面）南益名泉春晓A1),济南,4.9,9,近火车站,天桥区,,87421,火车站爱巢主题公寓,"商户经营,超赞房东",187BCEb9582,https://www.tujia.com/detail/8834904.htm,527,4.9,8834904,14:00后入住,1室1厅 1卫0厨,70㎡,12:00前退房,宜住2人,整套Loft复式,36.68120995898544,116.98667688375797,【已消毒】ins风复式公寓,4.9,168,5.0,tujia,5.0,距火车站直线540米
东关街道 明湖东路6号-1-102(明湖东路6号),济南,5.0,4,近山师/山大/洪楼,历下区,,5427353,奔驰的面包,"商户经营,超赞房东",130AAKZ9200,https://www.tujia.com/detail/19888541.htm,155,5.0,19888541,14:00后入住,1室1厅 1卫1厨,53㎡,12:00前退房,宜住2人,整套普通公寓,36.68438515684832,117.04866894700154,｛路朋｝9一室大明湖芙蓉街宽厚里趵突泉,5.0,277,5.0,tujia,5.0,距山师/山大/洪楼直线1.7公里
桑园路-道路,济南,4.9,73,近北园,历城区,,3826607,济南途掌柜102278精品民宿,自营民宿,185DeqT8925,https://www.tujia.com/detail/9356810.htm,610,4.9,9356810,14:00后入住,2室1厅 1卫1厨,92㎡,12:00前退房,宜住4人,整套酒店式公寓,36.706871,117.083281,【班禾】洪楼/山大/名辉豪庭舒馨两居,4.9,325,4.9,tujia,4.8,距北园直线2.7公里
名泉春晓,济南,4.7,35,近火车站,天桥区,,162873,大明湖 万达 火车站 主题设计师的家,"个人房东,超赞房东,实名验证",185DKSB1229,https://www.tujia.com/detail/11533180.htm,308,4.7,11533180,14:00后入住,1室1厅 1卫0厨,80㎡,12:00前退房,宜住2人,整套普通公寓,36.68095510528707,116.99096275401295, 火车站 骑车站 趵突泉 爱的小屋一居室,4.8,168,4.9,tujia,4.8,距火车站直线285米
东仓小区-5号楼,济南,5.0,62,近山师/山大/洪楼,历下区,,6272134,济南途掌柜122360精品民宿,自营民宿,155BBws1080,https://www.tujia.com/detail/17071062.htm,141,5.0,17071062,14:00后入住,2室1厅 1卫1厨,68㎡,12:00前退房,宜住4人,整套普通公寓,36.680264,117.050983,【班禾】大明湖/山大/洪楼广场舒适两居室,5.0,259,5.0,tujia,5.0,距山师/山大/洪楼直线1.4公里
 洪家楼西路,济南,5.0,18,近山师/山大/洪楼,历城区,,2380541,梦享家.6,"个人房东,超赞房东,实名验证",186EOug5576,https://www.tujia.com/detail/14309674.htm,149,4.9,14309674,14:00后入住,1室0厅 1卫0厨,57㎡,12:00前退房,宜住2人,整套普通公寓,36.68808660818721,117.06875633994488,梦想.家/大明湖、印象城奢华120寸巨幕,5.0,299,5.0,tujia,5.0,距山师/山大/洪楼直线924米
济南678酒店式公寓,济南,5.0,6,近西客站,槐荫区,,5158119,小牛精品民宿,"商户经营,超赞房东",132AwPH8699,https://www.tujia.com/detail/19821138.htm,,5.0,19821138,14:00后入住,1室0厅 1卫0厨,54㎡,12:00前退房,宜住2人,整套酒店式公寓,36.657231,116.915238,西客站精品婚房,5.0,182,5.0,tujia,5.0,距西客站直线2.3公里
纬一路与馆驿街交叉口(和信广场),济南,4.9,11,近火车站,天桥区,,218128,和之信精品民宿（点击头像浏览更多房源）,"商户经营,超赞房东,实名验证",137EXdf0402,https://www.tujia.com/detail/13455779.htm,212,4.4,13455779,14:00后入住,1室0厅 1卫0厨,35㎡,12:00前退房,宜住2人,整套普通公寓,36.67525472007433,117.006125198049,炫酷黑金大公寓近火车站大明湖趵突泉芙蓉街,4.7,278,4.8,tujia,4.7,距火车站直线1.3公里
梁王新城(济南高铁东站东侧2公里),淄博,5.0,15,,历城区,,3929360,快乐E站,"个人房东,超赞房东,实名验证",135AFpl8887,https://www.tujia.com/detail/15099442.htm,81,5.0,15099442,14:00后入住,2室2厅 1卫1厨,100㎡,12:00前退房,宜住4人（可加1人）,整套普通公寓,36.752111,117.187623,100平新东站国际机场/白领订制高端套房,4.9,216,5.0,tujia,4.7,
 香港街1号(万象城上),济南,5.0,2,近高新区/奥体中心,历下区,,6244659,万象城悦玺民宿,"商户经营,超赞房东,实名验证",180AuSi6227,https://www.tujia.com/detail/16969044.htm,42,5.0,16969044,14:00后入住,1室0厅 1卫0厨,39㎡,12:00前退房,宜住2人,整套酒店式公寓,36.666136880631974,117.10594488279632,【悦玺•澜•花颜月貌】10奥体万象城观影,5.0,258,5.0,tujia,5.0,距高新区/奥体中心直线3.6公里
恒生艾特公寓,济南,5.0,9,近火车站,槐荫区,,6062554,济南途掌柜121419精品民宿,自营民宿,155BBws1080,https://www.tujia.com/detail/16229228.htm,80,5.0,16229228,14:00后入住,1室0厅 1卫1厨,32㎡,12:00前退房,宜住2人,整套普通公寓,36.687859,116.958062,【班禾】西部会展/匡山公园智能一居室,5.0,199,5.0,tujia,5.0,距火车站直线3.2公里
纬二路57号 3单元,济南,4.9,65,近大观园/和谐广场商圈,市中区,,3826537,济南途掌柜102257精品民宿,自营民宿,133Btbb1159,https://www.tujia.com/detail/9356691.htm,821,4.9,9356691,14:00后入住,1室2厅 1卫1厨,66㎡,12:00前退房,宜住2人,整套普通公寓,36.664023,117.004018,【班禾】大明湖/火车站/万达暖气大床房,4.9,289,5.0,tujia,4.9,距大观园/和谐广场商圈直线1.3公里
绿城兰悦(文化东路22号),济南,5.0,1,近山师/山大/洪楼,历下区,,4714291,风花雪月之精品民宿,"个人房东,超赞房东,实名验证",155AkCL5952,https://www.tujia.com/detail/18345475.htm,43,5.0,18345475,14:00后入住,1室0厅 1卫1厨,55㎡,12:00前退房,宜住2人,整套酒店式公寓,36.659997,117.070951,风花雪月日式大床房情侣投影终点房,5.0,249,5.0,tujia,5.0,距山师/山大/洪楼直线2.3公里
洪家楼西路,济南,5.0,7,近山师/山大/洪楼,历城区,,2380541,梦享家.6,"个人房东,超赞房东,实名验证",186EOug5576,https://www.tujia.com/detail/17300599.htm,21,5.0,17300599,14:00后入住,1室0厅 1卫0厨,57㎡,12:00前退房,宜住2人,整套普通公寓,36.687943811877446,117.0687959729686,几何.家/印象城/大明湖/4k巨幕影院,5.0,299,5.0,tujia,5.0,距山师/山大/洪楼直线910米
三庆·齐盛广场(齐盛广场6号楼),济南,5.0,12,近高新区/奥体中心,高新区,,5050144,泉城兰亭小筑,"个人房东,超赞房东,实名验证",131DvbU1959,https://www.tujia.com/detail/15595098.htm,139,5.0,15595098,14:00后入住,1室0厅 1卫0厨,56㎡,12:00前退房,宜住2人（可加1人）,整套普通公寓,36.68235319587136,117.14123932980478,3齐鲁软件园美莲高新万达奥体高清大投影房,5.0,230,5.0,tujia,5.0,距高新区/奥体中心直线1.5公里
花园路290号华夏福地,济南,5.0,44,近大明湖/泉城广场/趵突泉,历下区,,5573240,路客精品民宿BJ1000,商户经营,400DxKc270,https://www.tujia.com/detail/14722429.htm,253,4.9,14722429,15:00后入住,3室2厅 1卫1厨,117㎡,12:00前退房,宜住6人,整套普通公寓,36.68481882468154,117.03940472850135,【路客】初夏特惠【美编师】印象城,4.9,977,5.0,tujia,4.9,距大明湖/泉城广场/趵突泉直线2.1公里
华福维嘉公寓,济南,5.0,11,近北园,历城区,,6025363,奈斯·福,"个人房东,超赞房东,实名验证",176EhtA3507,https://www.tujia.com/detail/16224664.htm,125,5.0,16224664,14:00-24:00,1室0厅 1卫0厨,50㎡,12:00前退房,宜住4人,整套普通公寓,36.704136,117.062598, 【奈斯·福】北园大街|双床房|大屏投影,5.0,208,5.0,tujia,4.8,距北园直线1.8公里
官扎营新区南区-南门(管扎营新区党群服务中心),济南,4.8,318,近火车站,天桥区,,2051177,遇见之家,"个人房东,超赞房东,实名验证",181APCH6083,https://www.tujia.com/detail/5028697.htm,2868,4.8,5028697,12:00后入住,2室1厅 1卫0厨,70㎡,12:00前退房,宜住4人,整套酒店式公寓,36.679458892043456,117.00033112750964,遇见之家特色民宿近趵突泉，大明湖、暖气房,4.8,238,4.9,tujia,4.8,距火车站直线781米
纬一路与馆驿街交叉口(和信广场),济南,4.9,9,近火车站,天桥区,,218128,和之信精品民宿（点击头像浏览更多房源）,"商户经营,超赞房东,实名验证",137EXdf0402,https://www.tujia.com/detail/12317075.htm,296,5.0,12317075,14:00后入住,1室0厅 1卫0厨,35㎡,12:00前退房,宜住2人,整套普通公寓,36.67545009981004,117.0059275708368,【已消毒】投影泡泡房临火车站大明湖宽厚里,4.9,278,4.9,tujia,5.0,距火车站直线1.3公里
隆悦花园,济南,4.7,31,近山师/山大/洪楼,历城区,,1039896, 扬帆起航,"个人房东,超赞房东,实名验证",153BxjM4263,https://www.tujia.com/detail/1823780.htm,536,4.6,1823780,14:00-23:00,2室1厅 1卫1厨,97㎡,12:00前退房,宜住4人,整套普通公寓,36.68775801412798,117.0704708217287,【安心住扬帆起航】Sweety馨&大明湖,4.8,298,4.9,tujia,4.8,距山师/山大/洪楼直线935米
绿城兰悦(文化东路与燕子山路交叉口),济南,4.8,6,近山师/山大/洪楼,历下区,,4714291,风花雪月之精品民宿,"个人房东,超赞房东,实名验证",155AkCL5952,https://www.tujia.com/detail/15795795.htm,152,5.0,15795795,14:00后入住,1室0厅 1卫1厨,55㎡,12:00前退房,宜住2人,整套酒店式公寓,36.659997,117.070951,风花雪月日式榻榻米100寸投影宽厚里山师,5.0,249,5.0,tujia,5.0,距山师/山大/洪楼直线2.3公里
聚隆广场,济南,5.0,1,近山师/山大/洪楼,历城区,,6601820,张贯鲁,"个人房东,实名验证",155EyVl8315,https://www.tujia.com/detail/18442124.htm,63,5.0,18442124,14:00后入住,1室0厅 1卫1厨,55㎡,12:00前退房,宜住2人,整套酒店式公寓,36.688981214685015,117.07267618501831,洪楼印象城/教堂观景房/欧式简约公主风,5.0,180,5.0,tujia,5.0,距山师/山大/洪楼直线1.1公里
纬一路与馆驿街交叉口(和信广场),济南,5.0,6,近火车站,天桥区,,218128,和之信精品民宿（点击头像浏览更多房源）,"商户经营,超赞房东,实名验证",137EXdf0402,https://www.tujia.com/detail/12974515.htm,199,5.0,12974515,14:00后入住,1室0厅 1卫0厨,55㎡,12:00前退房,宜住2人,整套普通公寓,36.67510275771164,117.0062329947102,木棉艺术网红约拍一居近火车站大明湖趵突泉,5.0,358,5.0,tujia,5.0,距火车站直线1.4公里
巴黎花园(明湖西路),济南,4.9,95,近大明湖/泉城广场/趵突泉,天桥区,,4584882,如归－Minshuku,"个人房东,超赞房东,实名验证",188DfPe0779,https://www.tujia.com/detail/13346152.htm,4089,4.9,13346152,14:00后入住,1室0厅 1卫1厨,65㎡,12:00前退房,宜住2人,整套普通公寓,36.68302731048816,117.01762378235456,花遇和风，月遇从云. 月が绮丽ですね,4.9,378,5.0,tujia,4.9,距大明湖/泉城广场/趵突泉直线2公里
绿城兰悦(文化东路22号),济南,5.0,1,近山师/山大/洪楼,历下区,,4714291,风花雪月之精品民宿,"个人房东,超赞房东,实名验证",155AkCL5952,https://www.tujia.com/detail/17063474.htm,35,5.0,17063474,14:00后入住,2室1厅 1卫1厨,70㎡,12:00前退房,宜住4人,整套酒店式公寓,36.660055,117.070843,【风花雪月】12极简墨绿设计师理念投影房,5.0,259,5.0,tujia,5.0,距山师/山大/洪楼直线2.2公里
民营经科园路(恒大滨河左岸4号公寓楼),济南,4.7,6,近北园,天桥区,,3786595,海星精品loft公寓,商户经营,155BuWZ7971,https://www.tujia.com/detail/10272984.htm,468,4.8,10272984,13:00后入住,1室2厅 1卫1厨,60㎡,12:00前退房,宜住2人,整套Loft复式,36.71243979886187,117.03482674421817, 大明湖/泉城广场/复式大床/温馨舒适C,4.8,148,5.0,tujia,4.8,距北园直线1.4公里
黄金山水郡-六区,济南,5.0,8,近英雄山/千佛山/舜耕会展中心,历下区,,6078402,济南途掌柜121721精品民宿,自营民宿,155BBws1080,https://www.tujia.com/detail/16308293.htm,40,5.0,16308293,14:00后入住,4室2厅 2卫1厨,200㎡,12:00前退房,宜住10人,整套普通公寓,36.631269,117.078495,【班禾】豪宅千佛山山财大奥体七星四居,5.0,999,5.0,tujia,5.0,距英雄山/千佛山/舜耕会展中心直线4.4公里
 卓越时代广场,济南,5.0,11,近山师/山大/洪楼,历下区,,1168083,民宿小哥John Qi,"个人房东,超赞房东,实名验证",152CCIU8336,https://www.tujia.com/detail/5163692.htm,134,5.0,5163692,14:00后入住,2室0厅 1卫1厨,75㎡,12:00前退房,宜住4人,整套Loft复式,36.658118,117.093131,【万象城】千佛山&浆水泉路&省妇产医院,5.0,398,5.0,tujia,5.0,距山师/山大/洪楼直线3.4公里
未来城,济南,4.9,96,近高新区/奥体中心,高新区,,3826880,济南途掌柜102323精品民宿,自营民宿,185DeqT8925,https://www.tujia.com/detail/9357118.htm,249,5.0,9357118,14:00后入住,1室1厅 1卫1厨,50㎡,12:00前退房,宜住2人,整套普通公寓,36.694856915724905,117.14045599999992,【班禾】智能家居/万达/国际会展一居,5.0,250,5.0,tujia,5.0,距高新区/奥体中心直线957米
 顺河街65号,济南,4.9,116,近大明湖/泉城广场/趵突泉,天桥区,,5350829,大明湖畔，趵突泉【遇见】,"个人房东,超赞房东,实名验证",152Cdxm0551,https://www.tujia.com/detail/14116467.htm,750,4.8,14116467,13:00后入住,2室1厅 1卫1厨,65㎡,12:00前退房,宜住4人,整套普通公寓,36.67895237757935,117.01721927109722,大明湖畔、趵突泉、【遇见】,4.9,218,4.9,tujia,4.9,距大明湖/泉城广场/趵突泉直线1.6公里
魏家庄街道鸿景苑小区,济南,4.8,109,近大明湖/泉城广场/趵突泉,市中区,,192194,路客精品民宿BB3540,商户经营,400DxKc270,https://www.tujia.com/detail/483289.htm,727,4.8,483289,15:00后入住,2室1厅 1卫1厨,55㎡,12:00前退房,宜住4人,整套普通公寓,36.671800762015884,117.01008567961121,【路客】初夏夜8折丨『梦幻星空』大明湖畔,4.8,530,4.9,tujia,4.9,距大明湖/泉城广场/趵突泉直线1.7公里
未来城公寓(未来城1号公寓),济南,5.0,4,近高新区/奥体中心,历下区,,1850879,【小贝喔】美宿,"个人房东,超赞房东,实名验证",185Alev7826,https://www.tujia.com/detail/14903281.htm,36,5.0,14903281,14:00后入住,1室0厅 1卫1厨,65㎡,12:00前退房,宜住2人（可加1人）,整套酒店式公寓,36.69448415178058,117.141354972052,【小贝喔】14万达广场国际会展欧式大床房,5.0,178,5.0,tujia,5.0,距高新区/奥体中心直线1公里
领秀城,济南,4.6,9,近英雄山/千佛山/舜耕会展中心,市中区,,5793551,路客精品民宿BJ1250,商户经营,400DxKc270,https://www.tujia.com/detail/15376677.htm,71,4.7,15376677,15:00后入住,2室1厅 1卫1厨,91㎡,12:00前退房,宜住5人,整套普通公寓,36.601561167549455,117.01259824296906,【路客】初夏8折丨秀领南城丨市中区山景美,4.6,636,4.7,tujia,4.6,距英雄山/千佛山/舜耕会展中心直线4.8公里
恒大城(H栋公寓),济南,4.8,6,近高新区/奥体中心,历城区,,5717188,济南兰意时尚主题公寓,"商户经营,实名验证",131CAfk9151,https://www.tujia.com/detail/15638624.htm,102,4.8,15638624,14:00后入住,1室0厅 1卫0厨,58㎡,12:00前退房,宜住2人,整套普通公寓,36.72590720487307,117.14783170552026,coastal蔚蓝海岸大床房,4.8,265,4.7,tujia,4.7,距高新区/奥体中心直线4.1公里
大明翠庭湖畔苑,济南,4.9,34,近大明湖/泉城广场/趵突泉,天桥区,,1860105,大自然的美容师,"个人房东,超赞房东,实名验证",155CUrZ3173,https://www.tujia.com/detail/12973619.htm,286,4.9,12973619,15:00后入住,2室1厅 1卫1厨,92㎡,12:00前退房,宜住4人（可加1人）,整套普通公寓,36.68534868464364,117.03086453179378,🏆【安心住】【钰见】大明湖高层湖景两居,4.9,488,4.9,tujia,4.9,距大明湖/泉城广场/趵突泉直线2公里
万科金域华府,济南,5.0,192,近高新区/奥体中心,历下区,,2509747,赛车手刘阳的家(点击头像浏览我更多房子),"个人房东,超赞房东,实名验证",187AjRo9531,https://www.tujia.com/detail/5897698.htm,1450,5.0,5897698,15:00后入住,3室1厅 1卫1厨,120㎡,12:00前退房,宜住6人,整套普通公寓,36.67957286237704,117.17169549028472,【安心住】赛车手刘阳的家万科奥体会展中心,5.0,453,5.0,tujia,5.0,距高新区/奥体中心直线4公里
 舜风路(凤凰路与舜风路交汇处西行100米万科麓公馆小区),济南,4.5,2,近高新区/奥体中心,历下区,,6092164,蛋壳小寓,"商户经营,超赞房东",156EEgJ8222,https://www.tujia.com/detail/18399564.htm,36,5.0,18399564,14:00后入住,1室0厅 1卫1厨,30㎡,12:00前退房,宜住2人,整套酒店式公寓,36.68183620009578,117.15346194839974,蛋壳小寓奥体中心建筑大学省力东院软件园,4.9,178,5.0,tujia,5.0,距高新区/奥体中心直线2.4公里
明湖北路/水屯路(路口)(湖畔苑小区-4号楼),济南,4.7,20,近大明湖/泉城广场/趵突泉,天桥区,,1038426,泉城逸家,"个人房东,超赞房东,实名验证",159AHhd1068,https://www.tujia.com/detail/2010617.htm,213,4.6,2010617,14:00后入住,2室1厅 1卫1厨,98㎡,12:00前退房,宜住4人,整套普通公寓,36.68533421396628,117.0308106334632,中欧蓝两居|湖景房B毗邻大明湖北门暖气房,4.8,298,5.0,tujia,4.9,距大明湖/泉城广场/趵突泉直线2公里
山钢新天地(丁豪广场斜对面路北山钢新天地广场),济南,5.0,3,近高新区/奥体中心,高新区,,5661636,美高精选公寓,"个人房东,超赞房东,实名验证",156EEoy5036,https://www.tujia.com/detail/15840014.htm,58,5.0,15840014,14:00后入住,1室0厅 1卫0厨,50㎡,12:00前退房,宜住2人,整套酒店式公寓,36.687625,117.125672,济南国际会展中心豪华商务大床房,5.0,158,5.0,tujia,5.0,距高新区/奥体中心直线658米
南益·名泉广场-E1座,济南,4.9,25,近火车站,天桥区,,2775320,名泉广场一品澜庭精品公寓,"个人房东,超赞房东,实名验证",156DjSu4994,https://www.tujia.com/detail/12582074.htm,409,4.8,12582074,14:00后入住,2室0厅 1卫1厨,65㎡,12:00前退房,宜住4人,整套酒店式公寓,36.682604914900665,116.991803,火车站大明湖宽厚里北欧豪华亲子双卧套房,4.9,218,4.9,tujia,4.8,距火车站直线462米
欧亚大观(阳光新路与卧龙路交叉口欧亚大观商都),济南,5.0,12,近大观园/和谐广场商圈,市中区,,2850941,风花雪月的漫画师之家,"个人房东,超赞房东,实名验证",132DUHw6633,https://www.tujia.com/detail/9849267.htm,220,4.9,9849267,14:00后入住,1室1厅 2卫1厨,120㎡,12:00前退房,宜住2人（可加2人）,整套Loft复式,36.639379,116.988715,风花雪月特色主题LOFT上下大房间可做饭,5.0,458,5.0,tujia,5.0,距大观园/和谐广场商圈直线2.6公里
明湖北路1号大明翠庭湖畔苑小区,济南,4.7,101,近大明湖/泉城广场/趵突泉,天桥区,,184424,路客精品民宿BC8880,商户经营,400DxKc270,https://www.tujia.com/detail/470591.htm,783,4.7,470591,15:00后入住,3室1厅 2卫1厨,120㎡,12:00前退房,宜住6人,整套普通公寓,36.68504455259391,117.0317551961067,【路客】初夏特惠【大明湖畔观景房】,4.8,1030,4.8,tujia,4.8,距大明湖/泉城广场/趵突泉直线2公里
影山花园-西区(毛家饭店南侧的4排搂的第3排最东侧是1单元),济南,5.0,2,近火车站,天桥区,,5711924,房冰,"个人房东,超赞房东,实名验证",133EnJC8894,https://www.tujia.com/detail/18513867.htm,20,5.0,18513867,13:00后入住,3室1厅 1卫1厨,75㎡,12:00前退房,宜住5人（可加1人）,整套普通公寓,36.688132,116.975897,🥇💯【已消毒】济南站粉色公主风电影房,5.0,269,5.0,tujia,5.0,距火车站直线1.8公里
和信城市广场,济南,4.8,8,近火车站,天桥区,,4494813,田田的房,"个人房东,超赞房东,实名验证",166DgDz2520,https://www.tujia.com/detail/12724629.htm,103,4.9,12724629,14:00后入住,1室0厅 1卫1厨,47㎡,12:00前退房,宜住2人,整套普通公寓,36.67500255667347,117.00637723446889,【田田的房】《一生有你》北欧摇椅大床公寓,4.8,160,4.8,tujia,4.9,距火车站直线1.4公里
纬一路与馆驿街交叉口(和信广场),济南,4.8,4,近火车站,天桥区,,218128,和之信精品民宿（点击头像浏览更多房源）,"商户经营,超赞房东,实名验证",137EXdf0402,https://www.tujia.com/detail/12815811.htm,100,4.8,12815811,14:00后入住,1室0厅 1卫0厨,35㎡,12:00前退房,宜住2人,整套普通公寓,36.67525472007433,117.006125198049,【已消毒】观影钢琴房近火车站大明湖趵突泉,4.8,278,5.0,tujia,4.8,距火车站直线1.3公里
香格里拉东北塔,济南,4.9,7,近高新区/奥体中心,历下区,,1072391,V邱邱V,"个人房东,超赞房东,实名验证",156Eras6099,https://www.tujia.com/detail/10858492.htm,118,4.9,10858492,13:00后入住,1室0厅 1卫1厨,79㎡,12:00前退房,宜住4人,整套普通公寓,36.693645,117.129489,【青柠居】7号 高新万达、国际会展中心,4.8,188,4.9,tujia,4.7,距高新区/奥体中心直线162米
堤口路50号(k88名泉广场E1公寓),济南,5.0,5,近火车站,天桥区,,4490830,常漫公寓,"个人房东,实名验证",178DuBj7272,https://www.tujia.com/detail/11311700.htm,63,4.8,11311700,14:00后入住,1室0厅 1卫0厨,55㎡,12:00前退房,宜住2人,整套普通公寓,36.68256799914846,116.99200931334238,《常漫》简约ins温馨公寓*火车站汽车站,4.9,168,4.8,tujia,4.8,距火车站直线458米
会展西路香格里拉西北塔,济南,4.9,14,近高新区/奥体中心,高新区,,97623,泉城广场芙蓉街服装设计师的家,"个人房东,实名验证",183DRqt7673,https://www.tujia.com/detail/1072302.htm,201,4.9,1072302,14:00后入住,1室0厅 1卫1厨,75㎡,12:00前退房,宜住2人,整套普通公寓,36.693487,117.128913,40高新会展旁万达广场城市园林艺术师的家,4.9,190,4.9,tujia,4.9,距高新区/奥体中心直线174米
岱宗街,济南,5.0,6,近大明湖/泉城广场/趵突泉,历下区,,4080630,木屋之家民宿,"个人房东,实名验证",183Cejj7218,https://www.tujia.com/detail/17175369.htm,217,5.0,17175369,14:00后入住,1室0厅 1卫0厨,16㎡,12:00前退房,宜住2人,整套客栈,36.677063,117.032496,【已消毒】映月桥__芙蓉街百花洲大明湖,5.0,158,5.0,tujia,4.8,距大明湖/泉城广场/趵突泉直线1.1公里
魏家庄豪景苑,济南,4.8,32,近火车站,市中区,,208814,路客精品民宿BE3660,商户经营,400DxKc270,https://www.tujia.com/detail/500805.htm,265,4.8,500805,15:00后入住,1室1厅 1卫1厨,65㎡,12:00前退房,宜住2人,整套普通公寓,36.67020068520323,117.00688222280188,【路客】限时长租丨【万达广场】清闲时光,4.8,636,4.9,tujia,5.0,距火车站直线1.6公里
明湖北路/水屯路(路口)(湖畔苑小区),济南,4.6,30,近大明湖/泉城广场/趵突泉,天桥区,,1038426,泉城逸家,"个人房东,超赞房东,实名验证",159AHhd1068,https://www.tujia.com/detail/1863617.htm,254,4.6,1863617,14:00后入住,2室1厅 1卫1厨,90㎡,12:00前退房,宜住4人,整套普通公寓,36.68546444996374,117.03087351484888,大明湖观景房A暖气开放 中国风两居室,4.8,298,4.9,tujia,4.8,距大明湖/泉城广场/趵突泉直线2公里
聚贤街58号楼,济南,4.5,12,近大明湖/泉城广场/趵突泉,天桥区,,97623,泉城广场芙蓉街服装设计师的家,"个人房东,实名验证",183DRqt7673,https://www.tujia.com/detail/1061614.htm,314,4.6,1061614,14:00后入住,2室2厅 1卫1厨,80㎡,12:00前退房,宜住4人,整套普通公寓,36.674493,117.012901,W万达广场大明湖趵突泉时尚艺术达人的家,4.6,279,4.8,tujia,4.6,距大明湖/泉城广场/趵突泉直线1.6公里
泉城路世茂国际广场,济南,4.9,484,近大明湖/泉城广场/趵突泉,历下区,,4110,济南斯维登服务公寓（大明湖世茂广场）,斯维登,0531EWGA8333,https://www.tujia.com/detail/67743.htm,1000,4.9,67743,14:00后入住,1室0厅 1卫1厨,50㎡,12:00前退房,宜住2人,整套酒店式公寓,36.670628,117.036817,【安心房】济南斯维登大明湖世茂广场标准大床房,4.9,300,4.9,tujia,5.0,距大明湖/泉城广场/趵突泉直线825米
和信大厦,济南,0.0,0,近火车站,天桥区,,9971494,济南橙果公寓,"商户经营,实名验证",138AUky1171,https://www.tujia.com/detail/31478742.htm,,0.0,31478742,14:00后入住,1室0厅 1卫0厨,45㎡,12:00前退房,宜住2人,整套普通公寓,36.675589,117.006706,大明湖/泉城广场商圈舒适吊床房,0.0,677,0.0,tujia,0.0,距火车站直线1.4公里
明湖西路886北刘新区-北门,济南,4.9,21,近火车站,天桥区,,85363,明湖雅舍,"个人房东,超赞房东,实名验证",133Crvi0208,https://www.tujia.com/detail/310185.htm,227,4.6,310185,14:00-24:00,2室1厅 1卫1厨,80㎡,12:00前退房,宜住4人,整套普通公寓,36.680231,117.012092,当大明湖遇到好莱坞&电影院两居室,4.8,317,4.7,tujia,4.9,距火车站直线1.8公里
魏家庄盛景苑,济南,4.7,56,近大明湖/泉城广场/趵突泉,市中区,,185192,路客精品民宿BE3630,商户经营,400DxKc270,https://www.tujia.com/detail/471554.htm,499,4.8,471554,15:00后入住,3室1厅 2卫1厨,101㎡,12:00前退房,宜住6人,整套普通公寓,36.66951648618788,117.01209571400791,【路客】大明湖畔艺术畅享·万达广场大三居,4.8,924,4.9,tujia,4.9,距大明湖/泉城广场/趵突泉直线1.5公里
万科麓公馆,济南,0.0,0,近高新区/奥体中心,高新区,,7374718,栖悦公寓管家,商户经营,183AMGj2085,https://www.tujia.com/detail/21309653.htm,26,0.0,21309653,14:00后入住,1室0厅 1卫0厨,30㎡,12:00前退房,宜住2人,整套普通公寓,36.682159,117.153227,双床房,0.0,134,0.0,tujia,0.0,距高新区/奥体中心直线2.3公里
